City_ID,City,Lat,Lng,Max Temp,Humidity,Cloudiness,Wind Speed,Country,Date
0,Acapulco de Juárez,16.8634,-99.8901,80.42,78,0,6.91,MX,1733103013
1,Constanța,44.1833,28.65,39.88,74,100,17.94,RO,1733102904
2,Klyuchi,52.2667,79.1667,16.11,93,100,7.07,RU,1733103016
3,Fortuna,40.5982,-124.1573,49.12,83,0,4.61,US,1733103018
4,Martapura,-3.4167,114.85,78.89,89,75,5.75,ID,1733103019
5,Piaçabuçu,-10.4056,-36.4344,77.13,87,10,11.48,BR,1733103020
6,Puerto Ayora,-0.7393,-90.3518,70.3,89,77,7.94,EC,1733103021
7,Awjilah,29.1081,21.2869,56.17,72,1,5.1,LY,1733103023
8,Bethel,41.3712,-73.414,29.55,65,0,0.0,US,1733102964
9,Utrik,11.2278,169.8474,82.04,73,62,21.16,MH,1733103025
10,Bilibino,68.0546,166.4372,0.25,95,65,2.86,RU,1733103026
11,Grytviken,-54.2811,-36.5092,40.23,94,100,10.63,GS,1733103027
12,Afaahiti,-17.75,-149.2833,79.59,80,80,12.44,PF,1733103029
13,Alotau,-10.3069,150.4462,90.12,59,52,7.02,PG,1733103030
14,Lihue,21.9789,-159.3672,80.19,68,40,10.36,US,1733103031
15,Codrington,-38.2667,141.9667,78.24,45,72,13.73,AU,1733103032
16,Nadi,-17.8,177.4167,86.0,66,75,12.66,FJ,1733103033
17,Pisco,-13.7,-76.2167,68.05,83,0,14.97,PE,1733103035
18,Isafjordur,66.0755,-23.124,11.07,66,41,9.4,IS,1733103036
19,Rémire-Montjoly,4.9167,-52.2667,78.84,94,75,4.61,GF,1733103037
20,Cologne,50.9333,6.95,44.96,84,100,5.75,DE,1733103032
21,Adamstown,-25.066,-130.1015,73.9,77,86,13.82,PN,1733103040
22,Port Elizabeth,-33.918,25.5701,62.89,98,0,4.61,ZA,1733103041
23,Bonanza,14.0289,-84.591,70.92,99,100,3.49,NI,1733103042
24,Blackmans Bay,-43.0167,147.3167,71.73,61,56,7.54,AU,1733103043
25,Udachny,66.4167,112.4,-26.23,94,82,5.77,RU,1733103044
26,Port-aux-Français,-49.35,70.2167,38.03,78,97,6.98,TF,1733103046
27,Usinsk,65.9939,57.5281,15.04,96,100,11.92,RU,1733103047
28,Keflavik,64.0049,-22.5624,18.03,73,40,6.91,IS,1733103048
29,Thompson,55.7435,-97.8558,5.16,78,75,3.44,CA,1733103049
30,Tieli,46.95,128.05,4.98,90,100,11.88,CN,1733103050
31,East London,-33.0153,27.9116,66.27,76,100,7.9,ZA,1733103052
32,Waitangi,-43.9535,-176.5597,57.81,75,82,11.01,NZ,1733103053
33,Saint Paul Harbor,57.79,-152.4072,35.11,87,100,9.22,US,1733103054
34,Myskhako,44.6714,37.7433,32.2,89,26,10.42,RU,1733103055
35,Ugoofaaru,5.6667,73.0,81.91,74,98,16.11,MV,1733103057
36,Ayr,55.4627,-4.6339,49.98,90,75,8.05,GB,1733102817
37,West Island,-12.1568,96.8225,85.98,79,75,4.61,CC,1733103059
38,Naryan-Mar,67.6713,53.087,23.76,93,98,13.82,RU,1733103060
39,Kruisfontein,-34.0033,24.7314,57.47,86,40,6.22,ZA,1733103061
40,Nuuk,64.1835,-51.7216,30.81,74,100,8.05,GL,1733103063
41,Hermanus,-34.4187,19.2345,57.79,83,8,2.98,ZA,1733103064
42,Fort Bragg,35.139,-79.006,38.8,76,0,0.0,US,1733102991
43,Plymouth,41.8334,-70.8328,31.87,63,0,5.75,US,1733103066
44,Yellowknife,62.456,-114.3525,-3.44,93,100,4.61,CA,1733103068
45,Hamilton,39.1834,-84.5333,28.42,60,20,8.05,US,1733102945
46,Sodo,6.8642,37.7628,52.93,55,46,2.84,ET,1733103070
47,Newman,37.3138,-121.0208,55.04,78,20,4.92,US,1733103071
48,Maintirano,-18.0667,44.0167,78.33,77,24,7.36,MG,1733103073
49,Punta Arenas,-53.15,-70.9167,42.91,75,75,23.02,CL,1733102839
50,Baukau,51.5526,7.2042,45.48,89,99,7.34,DE,1733103075
51,Bredasdorp,-34.5322,20.0403,59.52,86,3,3.2,ZA,1733103076
52,George Town,5.4112,100.3354,80.55,75,20,2.3,MY,1733102967
53,Alice Town,25.7167,-79.3,74.55,70,100,19.66,BS,1733103079
54,Qaqortoq,60.7167,-46.0333,31.3,99,100,7.49,GL,1733103080
55,Nouadhibou,20.931,-17.0347,71.58,49,95,6.91,MR,1733103081
56,Hawaiian Paradise Park,19.5933,-154.9731,78.31,76,100,9.22,US,1733103082
57,Christchurch,-43.5333,172.6333,67.91,53,100,10.36,NZ,1733102859
58,Greymouth,-42.4667,171.2,62.06,68,100,4.09,NZ,1733103085
59,Talnakh,69.4865,88.3972,16.34,91,100,22.77,RU,1733103086
60,San Patricio,28.017,-97.5169,66.15,75,100,11.7,US,1733103089
61,Dalandzadgad,43.5708,104.425,21.42,47,3,2.42,MN,1733103090
62,Polyarny,69.1989,33.4478,24.22,95,100,13.67,RU,1733103091
63,São João da Barra,-21.6403,-41.0511,74.52,92,3,6.2,BR,1733103092
64,Banda Aceh,5.5577,95.3222,79.57,82,100,7.43,ID,1733103094
65,Jinxiang,27.4327,120.6062,63.97,65,8,3.91,CN,1733103095
66,Ushuaia,-54.8,-68.3,40.66,70,40,21.85,AR,1733102918
67,Ashburton,-37.8626,145.0794,84.63,45,100,5.99,AU,1733103098
68,Mukalla,14.5425,49.1242,74.26,79,0,0.07,YE,1733103099
69,Atafu Village,-8.5421,-172.5159,83.7,73,22,14.54,TK,1733103100
70,Torit,4.4133,32.5678,74.91,59,31,2.15,SS,1733103101
71,São Miguel do Araguaia,-13.275,-50.1628,75.11,78,100,4.63,BR,1733103103
72,Katsuura,35.1333,140.3,58.62,69,45,5.59,JP,1733103104
73,Muisne,0.6,-80.0333,75.2,83,94,8.95,EC,1733103105
74,Malango,-2.9627,119.9001,76.87,78,87,2.35,ID,1733103106
75,Sinabang,2.4803,96.3801,78.89,82,100,3.47,ID,1733103108
76,Tindouf,27.6711,-8.1474,57.65,30,0,4.61,DZ,1733103109
77,Ath Thawrah,35.8469,38.5443,46.92,47,1,3.0,SY,1733103110
78,Hadibu,12.65,54.0333,76.53,70,31,9.26,YE,1733103111
79,Lerwick,60.1545,-1.1494,41.45,75,100,27.89,GB,1733103113
80,Tiksi,71.6872,128.8694,-12.71,100,74,4.03,RU,1733102971
81,Florø,61.5996,5.0328,44.56,93,100,13.8,NO,1733103115
82,Edinburgh of the Seven Seas,-37.0676,-12.3116,62.8,92,100,31.03,SH,1733103116
83,Hobyo,5.3505,48.5268,78.39,70,18,17.81,SO,1733103118
84,Chonchi,-42.6128,-73.8092,42.8,84,23,3.76,CL,1733103120
85,Itaporanga,-7.3044,-38.1503,80.13,66,65,12.53,BR,1733103121
86,Puerto Natales,-51.7236,-72.4875,40.06,91,100,7.65,CL,1733103122
87,Wailua Homesteads,22.0669,-159.378,79.59,74,40,10.36,US,1733103124
88,Badger,64.8,-147.5333,-23.01,75,0,4.61,US,1733103125
89,Tura,25.5198,90.2201,65.7,74,99,1.9,IN,1733103126
90,Albany,42.6001,-73.9662,27.45,73,20,1.01,US,1733103077
91,Sanctuary Point,-35.1114,150.629,84.56,40,0,1.99,AU,1733103128
92,Arraial do Cabo,-22.9661,-42.0278,73.69,92,5,16.51,BR,1733103129
93,Iqaluit,63.7506,-68.5145,13.73,62,40,12.66,CA,1733102959
94,Bardai,11.65,7.2333,62.2,25,56,10.33,NG,1733103132
95,Minas de Marcona,-15.2119,-75.1103,59.76,87,100,11.97,PE,1733103133
96,Faya-Largeau,17.9257,19.1043,63.19,32,50,17.9,TD,1733102928
97,Mugumu,-1.85,34.7,62.58,90,100,2.71,TZ,1733103136
98,Flying Fish Cove,-10.4217,105.6791,82.54,73,14,5.99,CX,1733103137
99,Port Mathurin,-19.6833,63.4167,76.15,75,30,14.47,MU,1733103138
100,Aykhal,66.0,111.5,-20.36,88,86,8.08,RU,1733103139
101,Tual,-5.6667,132.75,84.36,67,100,7.11,ID,1733103140
102,São Pedro da Aldeia,-22.8392,-42.1028,73.2,92,0,13.65,BR,1733103141
103,Whitehorse,60.7161,-135.0538,2.17,77,100,9.22,CA,1733103143
104,Onega,63.9061,38.1404,37.8,93,100,15.55,RU,1733103144
105,Kurumkan,54.3,110.3,-7.58,86,25,2.8,RU,1733103145
106,Olonkinbyen,70.9221,-8.7187,13.17,76,100,30.49,SJ,1733103146
107,Arkhangelsk,64.5401,40.5433,35.71,100,100,8.95,RU,1733103148
108,Margaret River,-33.95,115.0667,60.39,63,97,17.29,AU,1733103149
109,Campbellsville,37.3434,-85.3419,25.23,73,79,6.62,US,1733103150
110,Yulinshi,38.2906,109.7494,29.43,23,3,5.21,CN,1733103151
111,Avarua,-21.2078,-159.775,78.85,78,100,13.8,CK,1733103152
112,Copala,16.65,-98.9833,76.14,84,1,5.12,MX,1733103154
113,Holualoa,19.6228,-155.9522,79.86,54,0,8.05,US,1733103155
114,Kharp,66.8014,65.8081,6.58,94,93,6.98,RU,1733103156
115,Ust-Nera,64.5667,143.2,0.99,99,100,1.86,RU,1733103157
116,Longyearbyen,78.2186,15.6401,10.24,67,40,3.44,SJ,1733103158
117,Pacific Grove,36.6177,-121.9166,61.65,72,0,1.01,US,1733103160
118,Kununurra,-15.7667,128.7333,87.78,74,99,5.75,AU,1733102933
119,La Passe,45.5549,-0.8967,56.21,93,100,5.7,FR,1733103162
120,Zeribet el Oued,34.6828,6.5111,54.99,65,0,1.05,DZ,1733103163
121,Carnarvon,-24.8667,113.6333,72.73,59,6,16.58,AU,1733103164
122,Howrah,22.5892,88.3103,69.8,73,75,0.0,IN,1733103166
123,Kavieng,-2.5744,150.7967,84.58,69,51,2.75,PG,1733103167
124,Juneau,58.3019,-134.4197,23.41,93,100,0.0,US,1733103168
125,Nova Xavantina,-14.6667,-52.35,73.29,98,100,4.5,BR,1733103169
126,Touros,-5.1989,-35.4608,78.53,84,11,11.92,BR,1733103170
127,Yantarnyy,54.8717,19.9381,40.08,77,2,17.25,RU,1733103172
128,Trevelin,-43.0858,-71.4639,38.39,85,28,7.34,AR,1733103173
129,Amga,60.8953,131.9608,-6.5,94,100,1.97,RU,1733103174
130,College,64.8569,-147.8028,-22.92,72,75,4.61,US,1733103175
131,Ribeira Grande,38.5167,-28.7,63.77,91,49,5.99,PT,1733103176
132,Tazovsky,67.4667,78.7,10.08,96,100,8.3,RU,1733103178
133,Bengkulu,-3.8004,102.2655,75.65,94,100,6.64,ID,1733103179
134,Bonthe,7.5264,-12.505,78.84,80,10,5.06,SL,1733103180
135,Ilulissat,69.2167,-51.1,6.82,61,100,3.44,GL,1733103181
136,Hithadhoo,-0.6,73.0833,81.7,81,100,21.94,MV,1733103182
137,Lingyuan,41.24,119.4011,20.95,26,0,17.83,CN,1733103184
138,Siparia,10.1333,-61.5,77.7,87,19,11.54,TT,1733103185
139,Monrovia,6.3005,-10.7969,78.76,79,6,3.89,LR,1733102989
140,Tingo María,-9.2895,-76.0088,70.02,97,89,2.95,PE,1733103187
141,Dudinka,69.4058,86.1778,14.76,91,100,21.97,RU,1733103188
142,Vorgashor,67.5833,63.95,13.1,94,100,17.43,RU,1733103190
143,Gisborne,-38.6533,178.0042,68.88,68,71,10.94,NZ,1733103191
144,Khalkhāl,37.6189,48.5258,27.63,87,79,5.08,IR,1733103192
145,Spring,30.0799,-95.4172,58.89,67,0,6.91,US,1733103193
146,Shahrak,34.1074,64.3052,27.91,59,2,3.18,AF,1733103194
147,Lebu,-37.6167,-73.65,52.65,87,18,12.21,CL,1733103197
148,Kourou,5.1552,-52.6478,75.83,93,23,5.75,GF,1733103005
149,Garachiko,28.7781,-17.7646,66.31,68,75,8.05,ES,1733103199
150,Ixtapa,20.7,-105.2,76.23,78,0,8.05,MX,1733103200
151,Pāthardi,19.1667,75.1833,70.88,52,100,6.49,IN,1733103202
152,Hecun,36.5333,114.1111,40.84,36,11,10.6,CN,1733103203
153,Penzance,50.1186,-5.5371,50.68,75,9,26.24,GB,1733103204
154,Mili,6.0815,171.735,81.93,80,100,14.16,MH,1733103205
155,Mahibadhoo,3.7833,72.9667,82.9,74,15,17.83,MV,1733103208
156,Siuna,13.7332,-84.7773,72.72,98,100,4.65,NI,1733103209
157,Saipan,15.1355,145.701,88.5,80,40,16.11,MP,1733103210
158,Sikasso,10.9167,-7.0,67.41,27,7,3.87,ML,1733103212
159,Mount Isa,-20.7333,139.5,94.77,49,40,13.8,AU,1733103213
160,Puerto Baquerizo Moreno,-0.9,-89.6,70.79,86,81,11.56,EC,1733103214
161,Hasaki,35.7333,140.8333,59.85,63,91,14.88,JP,1733103215
162,Otra Banda,18.6502,-68.6628,72.48,91,0,2.75,DO,1733103216
163,Plettenberg Bay,-34.0527,23.3716,60.24,83,47,5.14,ZA,1733103217
164,Abū al Maţāmīr,30.9102,30.1744,53.62,89,38,1.83,EG,1733103219
165,Ålesund,62.4723,6.1549,46.76,82,75,12.66,NO,1733103220
166,Iskateley,67.6803,53.1512,23.95,93,98,13.78,RU,1733103221
167,Lysekil,58.2743,11.4358,45.03,90,98,3.0,SE,1733103222
168,Klamath Falls,42.2249,-121.7817,29.88,99,100,0.0,US,1733103224
169,Mossamedes,-15.1961,12.1522,68.38,82,95,6.11,AO,1733103226
170,Invercargill,-46.4,168.35,66.02,69,100,5.01,NZ,1733103227
171,Bontang,0.1333,117.5,83.05,71,66,1.01,ID,1733103228
172,Aral,40.5156,81.2636,30.85,45,91,0.4,CN,1733103230
173,Saint-Philippe,-21.3585,55.7679,74.84,83,87,9.84,RE,1733103231
174,Tazacorte,28.629,-17.9293,68.97,80,75,8.05,ES,1733103232
175,Beledweyne,4.7358,45.2036,74.28,58,61,11.27,SO,1733103233
176,Nemuro,43.3236,145.575,39.43,54,19,5.1,JP,1733103234
177,Bridlington,54.0831,-0.1919,51.73,64,37,5.01,GB,1733103235
178,Coquimbo,-29.9533,-71.3436,58.73,79,0,6.91,CL,1733102942
179,Toliara,-23.35,43.6667,73.29,74,0,12.21,MG,1733103238
180,Labrador City,52.9463,-66.9114,21.11,85,100,14.97,CA,1733103239
181,Villa Gesell,-37.2639,-56.973,58.03,76,0,21.68,AR,1733103241
182,Yarmouth,41.7057,-70.2286,32.97,60,0,14.0,US,1733103213
183,Itaituba,-4.2761,-55.9836,84.29,51,100,1.25,BR,1733103243
184,Papatowai,-46.5619,169.4708,62.37,61,100,8.75,NZ,1733103244
185,Anadyr,64.75,177.4833,21.7,93,100,13.42,RU,1733103245
186,Salym,60.0625,71.4789,19.94,93,100,8.57,RU,1733103246
187,Rawai,7.7797,98.3253,84.97,83,100,9.75,TH,1733103248
188,Poretskoye,55.1974,46.3291,33.51,89,100,10.25,RU,1733103249
189,San Sebastián de La Gomera,28.0916,-17.1133,70.16,68,0,1.14,ES,1733103250
190,Tarnogskiy Gorodok,60.4997,43.5761,35.64,98,100,8.84,RU,1733103251
191,Whangarei,-35.7317,174.3239,74.68,47,21,7.36,NZ,1733103252
192,Ulsteinvik,62.3432,5.8487,46.76,89,100,4.0,NO,1733103254
193,Flin Flon,54.7682,-101.865,-1.8,99,26,3.09,CA,1733103107
194,Mar del Plata,-38.0023,-57.5575,55.94,86,0,8.01,AR,1733103007
195,Nikolayevsk-on-Amur,53.1406,140.73,20.3,93,83,4.9,RU,1733103257
196,Kumul,42.8,93.45,28.27,64,98,4.45,CN,1733103259
197,St. John's,47.5649,-52.7093,35.15,86,20,11.5,CA,1733103260
198,Choyr,46.3611,108.3611,12.13,28,5,6.85,MN,1733103261
199,Papao,-17.75,-149.55,85.68,75,74,10.78,PF,1733103262
200,Brisas de Zicatela,15.8369,-97.0419,81.12,78,0,2.3,MX,1733103265
201,Kapuskasing,49.4169,-82.4331,26.69,100,100,9.22,CA,1733103266
202,Gambiran Satu,-8.3939,114.1464,84.29,72,99,3.11,ID,1733103267
203,Melchor de Mencos,17.0686,-89.1522,75.2,94,75,0.0,GT,1733103269
204,Nueva Guinea,11.6876,-84.4562,73.62,97,99,7.36,NI,1733103270
205,Pompéia,-22.1086,-50.1717,76.6,70,95,7.63,BR,1733103271
206,Benguela,-12.5763,13.4055,76.71,83,96,4.83,AO,1733103272
207,Taroa,8.7058,171.2275,82.13,80,17,22.41,MH,1733103273
208,Mehtar Lām,34.6714,70.2094,50.9,54,47,3.56,AF,1733103275
209,Lodja,-3.4833,23.4333,68.63,100,100,1.12,CD,1733103276
210,Puerto Deseado,-47.7503,-65.8938,47.95,56,100,20.6,AR,1733103277
211,Kurchatov,51.6601,35.6521,30.33,92,100,4.54,RU,1733103278
212,Laojunmiao,39.8333,97.7333,22.32,51,100,4.36,CN,1733103280
213,New Norfolk,-42.7826,147.0587,69.71,76,100,5.79,AU,1733103281
214,Nuku'alofa,-21.1333,-175.2,82.74,89,75,6.91,TO,1733103282
215,Koné,-21.0595,164.8658,86.47,53,56,8.3,NC,1733103283
216,Champerico,14.3,-91.9167,79.47,66,20,3.2,GT,1733103284
217,Aïn Sefra,32.75,-0.5833,52.99,51,89,2.77,DZ,1733103285
218,Jamestown,42.097,-79.2353,23.02,95,75,13.8,US,1733103287
219,Port Lincoln,-34.7333,135.8667,77.58,57,99,22.03,AU,1733103288
220,Lata,40.1629,-8.3327,53.51,84,84,3.2,PT,1733103289
221,Punta del Este,-34.9667,-54.95,64.51,100,75,20.0,UY,1733103161
222,Rio Grande,-32.035,-52.0986,70.97,94,100,12.53,BR,1733103291
223,Hirara,24.8,125.2833,75.06,64,75,13.8,JP,1733103293
224,Menongue,-14.6585,17.691,63.28,83,83,3.74,AO,1733103294
225,Port Macquarie,-31.4333,152.9167,83.07,65,0,5.01,AU,1733103295
226,Salem,11.65,78.1667,73.54,91,100,4.88,IN,1733103112
227,Dauphin,51.1494,-100.0502,8.74,85,100,8.05,CA,1733103209
228,Turochak,52.2576,87.1224,27.01,99,100,1.77,RU,1733103299
229,La Sierpe,21.7717,-79.2684,70.14,92,7,7.54,CU,1733103300
230,Westport,41.1415,-73.3579,31.87,57,0,3.0,US,1733103301
231,Neya,58.2972,43.8681,33.71,98,100,6.51,RU,1733103303
232,Jungapeo de Juárez,19.45,-100.4833,64.81,64,0,6.78,MX,1733103304
233,Wakkanai,45.4094,141.6739,39.18,60,75,13.8,JP,1733103305
234,Hengchun,22.0042,120.7439,74.71,68,39,18.52,TW,1733103306
235,Panna,24.7167,80.2,57.06,46,49,2.53,IN,1733103308
236,Kyzyl,51.7,94.45,1.6,94,94,1.81,RU,1733103309
237,Daru,-9.0763,143.2092,85.59,74,100,2.04,PG,1733103310
238,Bo`ka,40.8108,69.1986,39.24,72,7,3.78,UZ,1733103313
239,Marsá Maţrūḩ,31.3525,27.2453,55.6,58,0,9.22,EG,1733103314
240,Campo Largo,-25.4586,-49.5283,69.53,91,3,1.48,BR,1733103315
241,Guácimo,10.2104,-83.6807,73.11,97,100,2.62,CR,1733103316
242,Nadym,65.5333,72.5167,0.32,91,46,11.12,RU,1733103318
243,Ati,13.2154,18.3353,64.35,24,23,9.78,TD,1733103319
244,Dhidhdhoo,6.8833,73.1,82.62,63,52,19.44,MV,1733103320
245,Shimoda,34.6667,138.95,59.09,57,0,5.35,JP,1733103321
246,Lompoc,34.6391,-120.4579,60.69,75,0,4.61,US,1733103323
247,Vallenar,-28.5708,-70.7581,71.49,23,0,2.08,CL,1733103324
248,Dzüünharaa,48.8523,106.4579,0.1,75,11,2.53,MN,1733103325
249,Petropavlovsk-Kamchatskiy,53.0452,158.6483,30.79,100,100,2.24,RU,1733103326
250,Ghadames,30.1337,9.5007,53.98,58,0,6.91,LY,1733103328
251,Lā‘ie,21.6477,-157.9253,83.05,66,59,4.0,US,1733103329
252,Mozdok,43.7492,44.6881,34.84,74,100,8.08,RU,1733103330
253,Dul'durga,50.6761,113.5931,-1.32,84,19,4.03,RU,1733103331
254,Bel Ombre,-4.6167,55.4167,82.24,74,75,4.61,SC,1733103333
255,Saynshand,44.8824,110.1163,13.75,31,0,9.89,MN,1733103334
256,Uturoa,-16.7333,-151.4333,82.98,70,96,7.07,PF,1733103335
257,Nichinan,31.6,131.3667,64.06,53,0,2.21,JP,1733103336
258,Marsh Harbour,26.5412,-77.0636,72.55,79,100,10.92,BS,1733103339
259,Esmeralda,21.8525,-78.1169,71.11,89,0,5.93,CU,1733103165
260,Lubaczów,50.157,23.1234,34.21,93,0,6.17,PL,1733103341
261,Vänersborg,58.3807,12.3234,41.77,93,20,13.8,SE,1733103342
262,Puerto Aisén,-45.4,-72.7,40.68,99,72,5.53,CL,1733103235
263,Taltal,-25.4,-70.4833,64.96,72,5,2.28,CL,1733103345
264,Khandyga,62.6667,135.6,-10.89,93,100,0.58,RU,1733103346
265,Markovo,57.3206,107.0881,-26.46,99,21,0.4,RU,1733103347
266,Ayorou,14.7308,0.9174,68.63,16,32,10.27,NE,1733103348
267,Malindi,-3.2175,40.1191,78.96,89,40,0.0,KE,1733103350
268,Butembo,0.15,29.2833,57.07,94,99,2.35,CD,1733103351
269,Nelson Bay,-32.7167,152.15,82.0,67,0,11.01,AU,1733103352
270,Acajutla,13.5928,-89.8275,80.26,62,46,6.15,SV,1733103353
271,Selkirk,50.1436,-96.8845,14.18,93,100,3.0,CA,1733103355
272,Palmer,42.1584,-72.3287,28.96,66,40,3.44,US,1733103356
273,Richards Bay,-28.783,32.0377,70.63,77,100,7.2,ZA,1733103357
274,Island Harbour,50.724,-1.2758,53.02,94,0,5.99,GB,1733103358
275,Hailar,49.2,119.7,-6.9,95,100,10.38,CN,1733103360
276,Bhīmunipatnam,17.8833,83.4333,74.71,83,100,9.91,IN,1733103361
277,Ivdel',60.6911,60.4206,26.51,81,100,9.42,RU,1733103362
278,Amara,31.8406,47.1396,51.51,44,0,10.31,IQ,1733103363
279,Arenápolis,-14.4503,-56.8461,72.84,95,100,4.34,BR,1733103364
280,Fort McMurray,56.7268,-111.381,-8.01,77,100,6.91,CA,1733103304
281,Guarapari,-20.6667,-40.4975,73.63,95,80,4.85,BR,1733103367
282,Tofol,5.3248,163.0078,89.38,66,75,2.3,FM,1733103368
283,Khovd,48.0056,91.6419,11.62,84,89,1.16,MN,1733103369
284,Rustenburg,-25.6676,27.2421,66.97,33,2,1.68,ZA,1733103370
285,Kalabo,-14.97,22.6814,70.54,58,25,4.45,ZM,1733103372
286,Kingston,17.997,-76.7936,81.55,83,20,11.5,JM,1733103236
287,Myrina,39.8797,25.0742,52.84,94,75,14.97,GR,1733103374
288,Cabedelo,-6.9811,-34.8339,79.47,86,34,13.91,BR,1733103375
289,Kristiansund,63.1115,7.732,44.13,87,75,19.57,NO,1733103377
290,Prineville,44.2999,-120.8345,29.71,93,0,6.91,US,1733103378
291,Inari,68.906,27.0288,22.24,97,100,2.37,FI,1733103379
292,Ludvika,60.1496,15.1878,42.39,89,100,13.47,SE,1733103381
293,Susuman,62.7833,148.1667,6.93,95,97,3.91,RU,1733103382
294,Rehoboth,-23.3167,17.0833,70.92,17,0,5.1,NA,1733103383
295,Pailitas,8.9565,-73.6255,77.74,89,76,4.85,CO,1733103384
296,Moyynkum,44.2914,72.9469,37.67,85,100,6.46,KZ,1733103385
297,Treinta y Tres,-33.2333,-54.3833,64.45,94,100,17.22,UY,1733103387
298,Port Saint John's,-31.6229,29.5448,68.99,94,100,8.79,ZA,1733103388
299,Stanley,54.868,-1.6985,45.52,92,40,5.75,GB,1733103389
300,Piton Saint-Leu,-21.2196,55.3151,71.71,64,20,6.91,RE,1733103390
301,Sampit,-2.5333,112.95,84.6,73,75,2.04,ID,1733103392
302,La Gomera,14.0833,-91.05,76.39,79,75,4.72,GT,1733103394
303,Creel,27.75,-107.6333,45.09,27,97,1.72,MX,1733103395
304,Ntungamo,-0.8833,29.65,63.45,94,86,2.48,UG,1733103397
305,Oyón,-10.6681,-76.7731,42.33,89,100,2.62,PE,1733103398
306,Wynyard,-41.0,145.7167,65.19,83,97,5.01,AU,1733103399
307,Kupino,54.3663,77.2981,3.09,98,71,6.22,RU,1733103400
308,La Ronge,55.1001,-105.2842,-5.55,84,0,4.61,CA,1733103401
309,Mundybash,53.211,87.2983,29.28,99,100,2.57,RU,1733103403
310,Trairi,-3.2778,-39.2689,78.67,78,46,10.63,BR,1733103396
311,Whakatane,-37.9585,176.9854,70.03,66,90,8.19,NZ,1733103405
312,Synel'nykove,48.3204,35.5179,26.55,94,24,6.08,UA,1733103406
313,Campbell River,50.0163,-125.2446,43.45,100,100,0.0,CA,1733103408
314,Barro Alto,-11.7608,-41.9117,72.54,60,14,3.0,BR,1733103409
315,Aasiaat,68.7098,-52.8699,-1.55,96,100,3.98,GL,1733103411
316,Naze,28.3667,129.4833,70.72,53,23,6.02,JP,1733103413
317,Port Alfred,-33.5906,26.891,60.19,94,100,1.99,ZA,1733103414
318,Enewetak,11.3474,162.3373,82.49,82,33,23.69,MH,1733103415
319,Lockwood,45.8191,-108.4149,24.69,70,75,11.5,US,1733103416
320,Abra Pampa,-22.7205,-65.697,63.91,44,100,7.74,AR,1733103417
321,City of Sipalay,9.75,122.5,85.64,72,89,4.83,PH,1733103419
322,Santa Rosa de Río Primero,-31.1523,-63.4019,62.24,63,0,7.27,AR,1733103420
323,Sarkand,45.41,79.9186,34.72,99,100,1.79,KZ,1733103422
324,Ancud,-41.8697,-73.8203,47.03,73,20,9.01,CL,1733103393
325,Bam,29.106,58.357,43.5,35,0,5.93,IR,1733103425
326,Imbituba,-28.24,-48.6703,69.85,92,100,18.19,BR,1733103189
327,Bulawayo,-20.15,28.5833,62.22,45,0,5.93,ZW,1733103428
328,Lázaro Cárdenas,17.9583,-102.2,77.61,85,0,3.58,MX,1733103430
329,Jacmel,18.2342,-72.5347,78.1,84,11,3.11,HT,1733103432
330,Mirpur Sakro,24.5474,67.6277,70.75,52,0,4.72,PK,1733103433
331,Fort St. John,56.2499,-120.8529,-5.91,77,100,8.05,CA,1733103434
332,Ust'-Barguzin,53.45,108.9833,0.09,97,99,5.79,RU,1733103436
333,Vorkuta,67.5,64.0,13.03,94,100,17.4,RU,1733103437
334,Aktobe,50.2797,57.2072,28.49,80,100,6.71,KZ,1733103438
335,Sandnessjøen,66.0217,12.6316,36.61,99,100,48.88,NO,1733103439
336,Santa Rosalía,27.3167,-112.2833,61.03,59,0,3.11,MX,1733103440
337,Porto-Novo,6.4965,2.6036,78.62,67,14,4.5,BJ,1733103442
338,Obock,12.25,43.0833,67.95,83,27,7.78,DJ,1733103443
339,Barabai,-2.5833,115.3833,85.48,70,80,2.42,ID,1733103444
340,Traralgon,-38.1833,146.5333,86.77,28,100,2.04,AU,1733103445
341,Dwārka,22.2394,68.9678,74.39,43,0,9.69,IN,1733103446
342,Wangkui,46.8333,126.5,0.45,80,14,11.1,CN,1733103448
343,Taoudenni,22.6783,-3.9836,66.97,20,100,10.85,ML,1733103449
344,Mana,5.6592,-53.7767,77.56,87,47,9.06,GF,1733103450
345,Bom Jesus,-9.0744,-44.3586,77.18,61,36,1.63,BR,1733103451
346,Kenai,60.5544,-151.2583,26.15,77,100,13.8,US,1733103453
347,Lüderitz,-26.6481,15.1594,62.31,61,0,19.39,NA,1733103454
348,Tortosa,40.8125,0.5216,55.78,77,100,2.48,ES,1733103336
349,Itoman,26.1247,127.6694,73.42,49,75,10.36,JP,1733103456
350,Zhänibek,49.4167,46.85,28.78,92,57,7.09,KZ,1733103458
351,Shingū,33.7333,135.9833,61.3,49,0,1.5,JP,1733103459
352,Alto Araguaia,-17.3147,-53.2153,70.57,96,55,6.31,BR,1733103460
353,Cockburn Town,21.4612,-71.1419,78.76,89,40,5.75,TC,1733103461
354,Salalah,17.0151,54.0924,77.09,38,0,10.36,OM,1733103462
355,Ovriá,38.1833,21.7167,54.12,87,100,12.68,GR,1733103464
356,Kencong,-8.2833,113.3667,79.68,84,100,0.94,ID,1733103465
357,Akureyri,65.6835,-18.0878,1.33,85,0,8.05,IS,1733103467
358,Wenchang,30.904,118.4887,61.57,50,0,3.69,CN,1733103469
359,Takoradze,4.8845,-1.7554,78.75,77,0,3.87,GH,1733103317
360,Tamanghasset,22.785,5.5228,54.54,24,48,2.1,DZ,1733103472
361,Ménaka,15.9182,2.4022,67.14,16,100,9.84,ML,1733103473
362,Nieves,15.3274,120.9485,78.91,76,100,4.5,PH,1733103475
363,Sarmiento,-45.5882,-69.07,50.99,53,100,14.92,AR,1733103269
364,Parnarama,-5.6817,-43.0933,75.74,81,75,2.33,BR,1733103477
365,Saldanha,-33.0117,17.9442,61.68,87,2,14.79,ZA,1733103478
366,Tefé,-3.3542,-64.7114,86.5,40,100,3.0,BR,1733103480
367,Camocim,-2.9022,-40.8411,78.78,83,54,11.45,BR,1733103481
368,Alofi,-19.0595,-169.9187,84.09,74,100,6.91,NU,1733103482
369,Fale old settlement,-9.3852,-171.2468,83.37,73,8,13.18,TK,1733103483
370,Canchungo,12.0672,-16.0333,71.51,71,66,3.27,GW,1733103485
371,Khāsh,28.2211,61.2158,38.44,57,0,5.32,IR,1733103486
372,Berber,18.0216,33.983,63.12,23,7,11.16,SD,1733103487
373,Mahalapye,-23.1041,26.8142,72.01,28,1,12.62,BW,1733103488
374,Sibut,5.718,19.0739,70.43,48,7,2.93,CF,1733103490
375,Kandé,9.9578,1.0447,71.89,32,0,3.51,TG,1733103491
376,Manta,-0.95,-80.7333,74.98,73,40,10.36,EC,1733103492
377,Nkowakowa,-23.8878,30.2871,66.63,52,0,2.33,ZA,1733103493
378,Celestún,20.8667,-90.4,74.84,76,1,15.66,MX,1733103495
379,Sitka,57.0531,-135.33,42.69,81,100,4.61,US,1733103496
380,Eyl,7.9803,49.8164,74.3,81,57,12.26,SO,1733103497
381,Edirne,41.6772,26.556,46.53,81,100,12.39,TR,1733103498
382,Jalai Nur,49.45,117.7,-5.66,85,22,10.13,CN,1733103499
383,Port Hedland,-20.3167,118.5667,96.85,26,41,11.5,AU,1733103502
384,Road Town,18.4167,-64.6167,82.44,78,20,6.91,VG,1733103503
385,Kavaratti,10.5669,72.642,81.68,65,66,14.63,IN,1733103504
386,Hotan,37.0997,79.9269,32.04,43,0,1.77,CN,1733103505
387,Lagan,45.3929,47.3707,36.9,71,100,9.19,RU,1733103507
388,Cidade Velha,14.9167,-23.6167,75.67,78,99,21.85,CV,1733103508
389,Port Augusta,-32.5,137.7667,69.82,68,100,11.21,AU,1733103509
390,Prairie du Chien,43.0517,-91.1412,15.82,73,0,0.0,US,1733103510
391,Mount Pearl,47.5166,-52.7813,34.32,89,20,11.5,CA,1733103511
392,Bandarbeyla,9.4942,50.8122,77.31,76,15,13.38,SO,1733103513
393,Kargasok,59.0556,80.8572,10.04,96,85,7.56,RU,1733103514
394,Gorontalo,0.5412,123.0595,85.28,66,100,3.65,ID,1733103515
395,Igarka,67.4667,86.5833,15.01,93,100,19.37,RU,1733103516
396,Tsarevo,42.1667,27.85,48.38,84,100,12.08,BG,1733103518
397,Qalāt,32.1058,66.9083,44.19,49,77,2.59,AF,1733103519
398,Kentau,43.5206,68.5094,37.08,91,100,0.43,KZ,1733103521
399,Howli,26.4333,90.9667,61.5,56,35,8.25,IN,1733103523
400,Ha Tien,10.3833,104.4833,79.45,66,100,13.53,VN,1733103524
401,Vilhena,-12.7406,-60.1458,70.05,94,67,4.05,BR,1733103525
402,Galesong,-5.3166,119.3661,83.98,76,89,9.44,ID,1733103526
403,Bamboo Flat,11.7,92.7167,82.49,78,40,2.3,IN,1733103527
404,Vila Franca do Campo,37.7167,-25.4333,64.89,99,100,3.98,PT,1733103529
405,Al Ghayzah,16.2079,52.176,72.54,53,7,5.06,YE,1733103530
406,Uliastai,47.7417,96.8444,5.58,84,34,6.13,MN,1733103531
407,Narvik,68.4384,17.4272,28.81,97,100,8.95,NO,1733103532
408,Vila Velha,-20.3297,-40.2925,76.95,88,100,2.3,BR,1733103513
409,Lewistown,40.5992,-77.5714,31.41,47,100,9.22,US,1733103535
410,Kailua-Kona,19.6406,-155.9956,83.59,53,0,8.05,US,1733103536
411,Cromer,52.9312,1.2989,51.8,88,74,16.22,GB,1733103537
412,Severo-Yeniseyskiy,60.3725,93.0408,2.79,84,100,4.5,RU,1733103539
413,Turpan,42.9333,89.1667,34.0,45,99,1.59,CN,1733103540
414,Dunedin,-45.8742,170.5036,63.81,72,100,8.01,NZ,1733103541
415,Knyaze-Volkonskoye,48.4642,135.4567,12.54,92,100,4.27,RU,1733103543
416,Mahina,-17.5065,-149.489,85.77,74,75,16.11,PF,1733103544
417,Lake Munmorah,-33.1936,151.5719,92.57,53,0,10.89,AU,1733103546
418,Staritsa,56.5075,34.9354,31.68,88,99,8.1,RU,1733103548
419,Launceston,-41.45,147.1667,69.44,68,100,18.41,AU,1733103549
420,Al Bardīyah,31.7561,25.0865,63.07,67,100,9.01,LY,1733103550
421,Nueva Villa de Padilla,24.0167,-98.7833,68.7,82,39,10.16,MX,1733103551
422,Tyukhtet,56.5389,89.3011,11.5,88,100,6.78,RU,1733103552
423,Tarutyne,46.1858,29.1506,34.14,83,100,7.11,UA,1733103388
424,Barclayville,4.6797,-8.2339,76.62,87,5,2.64,LR,1733103555
425,Ta`ū,-14.2336,-169.5144,82.63,73,100,14.45,AS,1733103556
426,Nongstoin,25.5167,91.2667,56.41,43,100,2.64,IN,1733103557
427,Sofifi,0.7349,127.576,80.85,86,100,9.4,ID,1733103559
428,Port Blair,11.6667,92.75,82.44,78,40,2.3,IN,1733103560
429,Griffith,41.5284,-87.4237,22.51,67,0,6.91,US,1733103561
430,Pathein,16.7833,94.7333,76.8,79,100,4.27,MM,1733103562
431,Tiszaalpár,46.8128,19.9984,38.08,91,0,4.34,HU,1733103563
432,Nagqu Prefecture,31.5,92.0,20.57,22,0,2.48,CN,1733103565
433,Abepura,-2.6333,140.5833,88.61,66,20,3.44,ID,1733103566
434,Bodaybo,57.8506,114.1933,-5.21,96,100,1.57,RU,1733103567
435,Chibougamau,49.9168,-74.3659,19.02,93,100,3.44,CA,1733103568
436,Broken Hill,-31.95,141.4333,85.86,29,100,15.61,AU,1733103570
437,Yugorsk,61.3133,63.3319,23.95,93,100,8.72,RU,1733103571
438,Mulayjah,27.271,48.4242,55.81,49,0,9.73,SA,1733103572
439,Lorengau,-2.0226,147.2712,87.3,58,87,3.89,PG,1733103573
440,Arrondissement de Saint-Denis,48.9167,2.3333,53.38,93,75,10.36,FR,1733103575
441,Mirny,62.5353,113.9611,-28.01,100,34,4.12,RU,1733103576
442,Gazli,40.1333,63.45,43.9,60,100,4.43,UZ,1733103577
443,Gadzhiyevo,69.2551,33.3362,24.39,96,100,13.96,RU,1733103578
444,Gustavsberg,59.3268,18.3898,40.17,89,100,18.1,SE,1733103580
445,Burao,9.5221,45.5336,63.45,59,5,5.37,SO,1733103581
446,Concordia,-31.393,-58.0209,65.79,89,87,1.99,AR,1733103382
447,Seaside,36.6111,-121.8516,62.15,71,0,1.01,US,1733103583
448,Yerofey Pavlovich,53.9667,121.9667,-2.9,82,100,6.53,RU,1733103585
449,Yelan',50.949,43.7378,24.84,95,100,6.85,RU,1733103586
450,Kačuni,44.065,17.9386,38.88,97,99,1.45,BA,1733103587
451,Koryazhma,61.3143,47.1691,35.51,99,100,8.93,RU,1733103588
452,Yatou,37.15,122.3833,42.37,58,96,19.04,CN,1733103589
453,Tôlanaro,-25.0319,46.9987,73.47,83,75,2.3,MG,1733103591
454,Tainan City,22.9908,120.2133,66.11,82,40,5.75,TW,1733103592
455,Armidale,-30.5167,151.65,84.38,24,9,7.83,AU,1733103593
456,Plastun,44.7561,136.2939,24.73,91,100,4.12,RU,1733103594
457,Brisas Barra de Suchiate,14.55,-92.2167,78.75,65,81,1.61,MX,1733103595
458,Bolānīkhodān,22.1,85.3167,61.68,79,89,2.62,IN,1733103597
459,Nguigmi,14.2495,13.1092,63.73,30,100,10.83,NE,1733103598
460,Bījār,35.8668,47.6051,23.94,85,7,3.91,IR,1733103599
461,Sawākin,19.1059,37.3321,75.22,65,100,9.55,SD,1733103600
462,Pangai,-19.8,-174.35,84.31,84,75,9.22,TO,1733103602
463,Hammerfest,70.6634,23.6821,23.45,93,100,23.02,NO,1733103378
464,Colby,39.3958,-101.0524,39.04,55,6,5.01,US,1733103604
465,Xilin Hot,43.9667,116.0333,9.81,49,0,15.3,CN,1733103605
466,Kasongo-Lunda,-6.4667,16.8167,69.85,99,100,0.78,CD,1733103606
467,Suntar,62.1444,117.6319,-26.73,98,92,2.84,RU,1733103608
468,Shatsk,54.0258,41.7119,31.69,93,100,8.37,RU,1733103609
469,Finisterra,42.9049,-9.2629,57.94,87,2,9.17,ES,1733103610
470,Yelizovo,53.1873,158.3805,32.14,100,100,2.24,RU,1733103611
471,Alta Gracia,-31.6529,-64.4283,62.89,55,0,7.29,AR,1733103612
472,Quellón,-43.1167,-73.6167,48.96,65,55,10.56,CL,1733103614
473,El Tigre,8.8875,-64.2454,77.97,71,98,13.51,VE,1733103615
474,Illela,13.7292,5.2975,67.66,20,44,11.43,NG,1733103616
475,Old Town,50.087,14.4202,32.9,98,100,5.99,CZ,1733103553
476,Tongliao,43.6125,122.2653,19.11,41,0,14.09,CN,1733103619
477,Labytnangi,66.6572,66.4183,6.57,92,87,9.08,RU,1733103620
478,Port-Cartier,50.0334,-66.8654,25.7,74,99,11.95,CA,1733103621
479,Cidreira,-30.1811,-50.2056,70.34,98,100,8.23,BR,1733103623
480,Abu Dhabi,24.4667,54.3667,76.95,49,40,11.5,AE,1733102873
481,Cirebon,-6.7063,108.557,83.93,70,100,1.28,ID,1733103625
482,Samcheok,37.4406,129.1708,57.11,50,41,7.76,KR,1733103626
483,Maravatío de Ocampo,19.9,-100.45,56.71,46,0,3.18,MX,1733103628
484,Richmond,37.5538,-77.4603,42.91,62,75,10.36,US,1733102973
485,Tanjung Selor,2.8372,117.3642,87.04,67,75,1.88,ID,1733103630
486,Val-d'Or,48.1002,-77.7828,23.09,93,100,5.75,CA,1733103631
487,Belyayevka,51.3974,56.4096,27.79,86,100,8.01,RU,1733103632
488,Meizhou,24.2977,116.1072,70.32,47,47,2.3,CN,1733103634
489,Makokou,0.5738,12.8642,71.1,92,23,1.28,GA,1733103635
490,Prince Rupert,54.3161,-130.3201,48.29,81,100,46.04,CA,1733103636
491,Den Burg,53.0542,4.7972,48.18,100,75,18.41,NL,1733103637
492,Mazabuka,-15.856,27.748,64.76,57,6,3.06,ZM,1733103639
493,Jijelli,36.8205,5.7667,57.15,94,75,2.3,DZ,1733103640
494,Balabac,7.9868,117.0645,83.77,71,99,3.04,PH,1733103641
495,Pariaman,-0.619,100.12,74.8,91,100,7.11,ID,1733103642
496,Nova Viçosa,-17.8919,-39.3719,77.45,87,100,9.64,BR,1733103644
497,Nookat,40.2671,72.6207,31.8,70,14,1.54,KG,1733103645
498,Raja,8.4596,25.678,67.06,25,5,4.43,SS,1733103646
499,Nāḩiyat ash Shināfīyah,31.5874,44.6602,52.43,58,0,8.48,IQ,1733103647
500,Asaita,11.5636,41.4394,75.56,56,16,5.84,ET,1733103648
501,Silver City,32.7701,-108.2803,52.68,37,0,1.01,US,1733103651
502,Matoury,4.8483,-52.3317,78.76,94,75,5.75,GF,1733103653
503,Big Spring,32.2504,-101.4787,54.05,55,0,13.8,US,1733103656
504,Ojinaga,29.5667,-104.4167,63.55,31,0,0.0,MX,1733103657
505,Puerto Carreño,6.189,-67.4859,74.95,70,86,10.0,CO,1733103658
506,Santo Amaro da Imperatriz,-27.6881,-48.7786,76.01,97,100,3.62,BR,1733103660
507,Soyo,-6.1349,12.3689,77.41,87,57,5.23,AO,1733103661
508,San Andrés,12.5847,-81.7006,82.42,89,20,9.22,CO,1733103662
509,Kushmurun,52.4503,64.6311,11.07,95,99,7.11,KZ,1733103663
510,São José da Coroa Grande,-8.8978,-35.1478,78.01,86,37,12.21,BR,1733103599
511,Bikenibeu Village,1.3673,173.1241,89.56,66,75,12.66,KI,1733103666
512,Korla,41.7597,86.1469,31.91,64,82,3.49,CN,1733103667
513,Mokhsogollokh,61.4681,128.9203,-7.82,91,100,4.5,RU,1733103668
514,Hanceville,34.0607,-86.7675,44.51,75,0,6.4,US,1733103670
515,Dampit,-8.2116,112.7493,80.74,80,94,3.69,ID,1733103671
516,Broome,42.2506,-75.833,26.98,71,75,12.66,US,1733103672
517,Alice Springs,-23.7,133.8833,78.35,69,75,5.75,AU,1733103673
518,Shaowu,27.3409,117.4831,64.17,53,1,2.01,CN,1733103675
519,Lisala,2.15,21.5167,69.28,75,20,1.23,CD,1733103676
520,Vadsø,70.0744,29.7487,26.76,93,100,16.11,NO,1733103677
521,Insar,53.8653,44.3738,28.08,97,100,8.23,RU,1733103679
522,Maasbracht,51.1393,5.8863,49.24,89,49,4.0,NL,1733103680
523,Petlāwad,23.0,74.8,57.78,40,100,9.86,IN,1733103681
524,Oranjemund,-28.55,16.4333,59.23,94,42,16.17,NA,1733103682
525,Rongelap,11.1635,166.8941,82.38,79,21,20.89,MH,1733103684
526,Diamantino,-14.4086,-56.4461,72.91,96,100,5.37,BR,1733103685
527,Constitución,-35.3333,-72.4167,52.34,82,0,14.41,CL,1733103686
528,Kizil-Arvat,38.9764,56.2757,37.71,62,41,3.49,TM,1733103687
529,Siocon,7.7061,122.1353,84.07,80,100,1.39,PH,1733103689
530,Kopervik,59.2835,5.3067,50.14,93,100,13.8,NO,1733103690
531,Quesnel,52.9999,-122.5029,23.5,93,100,0.0,CA,1733103691
532,Bol'sherech'ye,56.0925,74.6272,6.66,99,98,6.87,RU,1733103692
533,Sokodé,8.9833,1.1333,72.19,34,0,3.89,TG,1733103693
534,Port Douglas,-16.4833,145.4667,85.12,72,95,6.91,AU,1733103695
535,Jianguang,28.1938,115.7836,64.2,43,5,2.39,CN,1733103696
536,Chegdomyn,51.1167,133.0167,16.16,89,100,1.66,RU,1733103697
537,Margate,51.3813,1.3862,53.87,89,100,1.01,GB,1733103586
538,Simplício Mendes,-7.8539,-41.9103,85.1,45,100,3.51,BR,1733103700
539,San Antonio de Palé,-1.4014,5.6325,78.55,85,94,6.8,GQ,1733103701
540,Santa Ana,33.7456,-117.8678,67.05,43,20,3.44,US,1733103702
541,Bhopal,23.2667,77.4,55.44,48,100,6.13,IN,1733103703
542,Tamiahua,21.2667,-97.45,74.19,88,100,6.17,MX,1733103704
543,Portland,45.5234,-122.6762,41.02,78,20,11.99,US,1733103440
544,Las Tablas,7.7667,-80.2833,80.17,99,98,0.76,PA,1733103708
545,Nova Sintra,14.8667,-24.7167,78.73,64,100,16.6,CV,1733103709
546,Belene,43.65,25.1167,41.34,75,100,11.18,BG,1733103711
547,Callao,-12.0667,-77.15,71.73,88,75,12.66,PE,1733103712
548,Pato Branco,-26.2286,-52.6706,68.88,86,41,1.99,BR,1733103713
549,Sasovo,54.3537,41.9199,31.84,92,100,8.5,RU,1733103714
550,Mata-Utu,-13.2816,-176.1745,82.89,75,100,8.46,WF,1733103715
551,Morden,49.1919,-98.1014,10.83,92,100,6.91,CA,1733103717
552,Prado,-17.3411,-39.2208,76.93,90,100,10.16,BR,1733103718
553,Egilsstadir,65.2653,-14.3948,6.71,72,0,5.75,IS,1733103719
554,Rio Preto da Eva,-2.6994,-59.6997,87.49,41,100,2.39,BR,1733103721
555,Sabang,5.8933,95.3214,81.57,75,100,6.78,ID,1733103722
556,Ghanzi,-21.5667,21.7833,74.1,22,0,13.18,BW,1733103723
557,Xigazê,29.25,88.8833,32.7,31,0,1.3,CN,1733103724
558,Thongwa,16.7619,96.5278,77.4,75,100,7.67,MM,1733103726
559,Indramayu,-6.3264,108.32,82.26,76,100,4.23,ID,1733103727
560,Myitkyina,25.3833,97.4,63.43,58,0,3.04,MM,1733103728
561,Trincomalee,8.5711,81.2335,80.15,75,72,18.63,LK,1733103474
562,Sinjai,-5.1241,120.253,83.62,73,100,5.35,ID,1733103731
563,Crucecita,-28.95,-58.9833,64.98,84,100,16.6,AR,1733103732
564,Happy Valley-Goose Bay,53.3168,-60.3315,28.71,80,75,17.27,CA,1733103733
565,Oxapampa,-10.5775,-75.4017,61.02,96,100,1.97,PE,1733103734
566,Qarazhal,48.0078,70.7903,27.91,85,100,3.58,KZ,1733103736
567,Kapaa,22.0752,-159.319,80.92,72,40,10.36,US,1733103737
568,Moyamba,8.1667,-12.4333,72.81,94,7,1.63,SL,1733103738
569,Kolonia Town,6.964,158.206,89.71,70,100,9.22,FM,1733103739
570,Pangody,65.85,74.4859,3.52,94,100,9.4,RU,1733103741
571,Los Altos,37.3852,-122.1141,61.18,64,0,4.61,US,1733103743
572,Portales,34.1862,-103.3344,45.1,39,20,9.33,US,1733103744
573,Gun Barrel City,32.3346,-96.1514,52.03,67,0,7.9,US,1733103747
574,Virginia,37.5481,-77.4467,43.03,62,75,10.36,US,1733103505
575,Tangalle,6.024,80.7911,79.66,79,56,11.21,LK,1733103749
576,Zhangye,38.9342,100.4517,21.99,58,100,3.51,CN,1733103751
577,Pointe-Noire,-4.7761,11.8635,78.87,94,75,5.75,CG,1733103752
578,Mtambile,-5.3833,39.7,78.24,78,81,2.21,TZ,1733103753
579,Aswān,24.0934,32.907,58.3,41,0,4.61,EG,1733103754
580,El Abiodh Sidi Cheikh,32.893,0.5484,55.26,54,99,3.58,DZ,1733103755
581,Marine Corps Base Hawaii - MCBH,21.4453,-157.7513,80.56,66,49,1.01,US,1733103757
