City_ID,City,Lat,Lng,Max Temp,Humidity,Cloudiness,Wind Speed,Country,Date
0,Greenville,35.6127,-77.3663,35.13,92,100,0.0,US,1733107207
1,Waitangi,-43.9535,-176.5597,57.81,75,86,11.01,NZ,1733107440
2,Luena,-11.7833,19.9167,60.67,93,13,1.36,AO,1733107441
3,George Town,5.4112,100.3354,84.13,69,20,8.05,MY,1733107442
4,Port-aux-Français,-49.35,70.2167,38.48,78,98,7.11,TF,1733107443
5,Mombasa,-4.0547,39.6636,75.85,88,99,4.25,KE,1733107445
6,Mbaïki,3.8678,17.9892,70.43,53,28,2.01,CF,1733107447
7,Ushuaia,-54.8,-68.3,40.66,75,40,20.71,AR,1733107155
8,Polyarny,69.1989,33.4478,24.4,96,100,12.28,RU,1733107449
9,Albany,42.6001,-73.9662,26.35,71,20,1.01,US,1733107383
10,Hawaiian Paradise Park,19.5933,-154.9731,76.51,79,100,8.05,US,1733107452
11,Tôlanaro,-25.0319,46.9987,73.47,83,40,4.61,MG,1733107453
12,Edinburgh of the Seven Seas,-37.0676,-12.3116,62.47,93,100,30.51,SH,1733107455
13,Cabo San Lucas,22.8909,-109.9124,73.76,88,0,0.0,MX,1733107456
14,West Island,-12.1568,96.8225,82.38,89,75,9.22,CC,1733107457
15,Dudinka,69.4058,86.1778,14.92,91,100,21.61,RU,1733107458
16,Isafjordur,66.0755,-23.124,11.3,70,40,9.22,IS,1733107459
17,Tadine,-21.55,167.8833,80.28,69,29,14.23,NC,1733107462
18,Zadar,44.1197,15.2422,38.01,87,0,4.61,HR,1733107463
19,São Vicente,-23.9631,-46.3919,73.98,26,1,4.36,BR,1733107464
20,Longyearbyen,78.2186,15.6401,6.64,78,20,2.3,SJ,1733107465
21,Fale old settlement,-9.3852,-171.2468,83.46,74,26,13.67,TK,1733107467
22,Mount Isa,-20.7333,139.5,91.17,55,40,17.27,AU,1733107468
23,Mbandaka,0.0487,18.2603,72.36,88,67,2.73,CD,1733107469
24,Lexington,37.9887,-84.4777,30.2,64,100,6.91,US,1733107219
25,Grytviken,-54.2811,-36.5092,41.45,93,100,15.35,GS,1733107471
26,Merca,1.7159,44.7717,76.89,79,16,11.34,SO,1733107474
27,Puerto Natales,-51.7236,-72.4875,39.67,92,100,7.61,CL,1733107380
28,Bredasdorp,-34.5322,20.0403,59.02,87,6,1.54,ZA,1733107476
29,Saipan,15.1355,145.701,88.5,77,40,16.11,MP,1733107477
30,Tomé,-36.6167,-72.95,56.01,86,0,8.21,CL,1733107479
31,Bardai,11.65,7.2333,62.37,23,71,11.97,NG,1733107480
32,Maragogi,-9.0122,-35.2225,77.04,87,43,10.85,BR,1733107250
33,Puerto Ayora,-0.7393,-90.3518,69.98,90,68,6.29,EC,1733107483
34,Kapuskasing,49.4169,-82.4331,26.69,100,100,11.5,CA,1733107485
35,Naryan-Mar,67.6713,53.087,22.05,92,99,14.34,RU,1733107486
36,Auki,-8.7676,160.7034,84.06,74,17,3.44,SB,1733107487
37,Uvel'skiy,54.4446,61.3574,20.57,89,100,5.3,RU,1733107488
38,Bilibino,68.0546,166.4372,0.45,95,74,2.93,RU,1733107489
39,Avarua,-21.2078,-159.775,77.05,83,75,10.36,CK,1733107491
40,Gweru,-19.45,29.8167,59.0,51,0,4.97,ZW,1733107492
41,Olonkinbyen,70.9221,-8.7187,13.21,75,100,30.33,SJ,1733107493
42,Thompson,55.7435,-97.8558,3.36,85,75,3.44,CA,1733107387
43,Murmashi,68.8154,32.8115,21.61,93,75,6.71,RU,1733107496
44,Yarmouth,41.7057,-70.2286,31.96,61,0,5.75,US,1733107497
45,Labuan,5.2767,115.2417,86.36,79,20,3.44,MY,1733107498
46,Talnakh,69.4865,88.3972,16.27,90,100,22.77,RU,1733107499
47,Karratha,-20.7377,116.8463,95.31,28,93,13.4,AU,1733107500
48,Isla Vista,34.4133,-119.861,64.45,40,0,3.29,US,1733107502
49,Pisco,-13.7,-76.2167,66.25,88,0,12.66,PE,1733107503
50,Udachny,66.4167,112.4,-25.22,93,82,5.86,RU,1733107504
51,Yellowknife,62.456,-114.3525,-2.58,95,100,3.44,CA,1733107396
52,Kupang,-10.1667,123.5833,91.98,70,40,9.22,ID,1733107506
53,Blackmans Bay,-43.0167,147.3167,71.73,71,57,6.11,AU,1733107508
54,Port Elizabeth,-33.918,25.5701,60.31,97,0,6.91,ZA,1733107233
55,Monroeville,40.4212,-79.7881,26.01,64,40,6.91,US,1733107347
56,Gijang,35.2442,129.2139,55.13,62,0,10.51,KR,1733107511
57,Bethel,41.3712,-73.414,27.93,67,0,3.27,US,1733107512
58,Nova Sintra,14.8667,-24.7167,78.62,64,100,18.16,CV,1733107514
59,Tiksi,71.6872,128.8694,-12.98,100,67,4.45,RU,1733107515
60,Kumul,42.8,93.45,30.7,60,98,5.7,CN,1733107517
61,Papatowai,-46.5619,169.4708,61.02,65,100,8.59,NZ,1733107518
62,Badger,64.8,-147.5333,-25.35,66,0,0.0,US,1733107519
63,Cologne,50.9333,6.95,47.12,86,73,1.99,DE,1733107395
64,Saint-Philippe,-21.3585,55.7679,75.27,81,84,9.8,RE,1733107521
65,Saint Paul Harbor,57.79,-152.4072,33.31,93,100,6.91,US,1733107523
66,Adamstown,-25.066,-130.1015,73.85,77,90,13.65,PN,1733107524
67,Port Mathurin,-19.6833,63.4167,75.78,76,39,13.4,MU,1733107525
68,Caucayá,-0.1934,-74.7819,72.73,97,18,1.01,CO,1733107526
69,Argos,37.6333,22.7333,49.87,90,94,5.44,GR,1733107527
70,Joshīmath,30.5667,79.5667,48.85,26,0,2.59,IN,1733107528
71,Haiku-Pauwela,20.9219,-156.3051,79.21,70,20,14.0,US,1733107530
72,Jamestown,42.097,-79.2353,23.02,92,100,12.66,US,1733107531
73,Mapimí,25.8167,-103.85,63.41,35,100,3.09,MX,1733107532
74,Masterton,-40.9597,175.6575,75.2,48,97,6.31,NZ,1733107533
75,Oxelösund,58.6706,17.1015,35.98,93,20,8.05,SE,1733107534
76,Alice Springs,-23.7,133.8833,78.35,73,75,16.11,AU,1733107536
77,Morehead City,34.7229,-76.726,46.4,64,0,5.75,US,1733107142
78,Mugia,43.1041,-9.2179,57.24,87,9,9.82,ES,1733107538
79,Zemio,5.0314,25.1361,66.78,52,6,2.53,CF,1733107539
80,Bambanglipuro,-7.95,110.2833,81.55,79,100,6.42,ID,1733107541
81,Skikda,36.8762,6.9092,57.81,77,100,7.2,DZ,1733107542
82,Armação de Búzios,-22.7469,-41.8817,73.0,93,7,15.08,BR,1733107386
83,Bonthe,7.5264,-12.505,78.51,80,9,4.43,SL,1733107545
84,Gornopravdinsk,60.05,69.9,20.62,95,100,8.77,RU,1733107546
85,College,64.8569,-147.8028,-25.62,62,20,0.0,US,1733107547
86,Huilong,31.8111,121.655,63.0,48,0,6.17,CN,1733107548
87,Khujner,23.7833,76.6,61.29,35,66,5.79,IN,1733107550
88,Boca do Acre,-8.7522,-67.3978,77.14,75,100,1.81,BR,1733107551
89,St. John's,47.5649,-52.7093,36.16,87,100,8.05,CA,1733107300
90,Zheleznodorozhnyy,55.7503,38.0042,33.35,85,100,7.11,RU,1733107553
91,Hamilton,39.1834,-84.5333,26.8,66,40,6.91,US,1733107555
92,Margaret River,-33.95,115.0667,62.38,52,89,17.78,AU,1733107557
93,Tralee,52.2704,-9.7026,46.9,74,100,15.64,IE,1733107558
94,Elena,42.9333,25.8833,36.72,99,100,2.48,BG,1733107559
95,Vorgashor,67.5833,63.95,13.6,95,100,17.2,RU,1733107561
96,San Jose de Guanipa,8.8872,-64.1651,77.13,77,98,12.82,VE,1733107562
97,Moyynkum,44.2914,72.9469,37.62,87,95,5.66,KZ,1733107563
98,Ribeira Grande,38.5167,-28.7,64.78,92,49,3.0,PT,1733107564
99,Natal,-5.795,-35.2094,79.45,83,40,8.05,BR,1733107437
100,Fareydūnshahr,32.941,50.121,23.2,61,0,6.17,IR,1733107567
101,Oyotún,-6.8519,-79.3036,70.66,83,55,4.12,PE,1733107568
102,Beyneu,45.3167,55.2,30.38,77,5,5.55,KZ,1733107569
103,Hilo,19.7297,-155.09,76.73,81,100,8.05,US,1733107571
104,Wingham,43.8879,-81.3114,25.5,94,100,1.36,CA,1733107572
105,Bayganin,48.6947,55.8742,28.87,66,100,4.85,KZ,1733107573
106,Wailua Homesteads,22.0669,-159.378,77.79,77,0,9.22,US,1733107575
107,Petropavlovsk-Kamchatskiy,53.0452,158.6483,30.79,100,100,4.47,RU,1733107576
108,São Gabriel da Cachoeira,-0.1303,-67.0892,75.83,85,96,3.33,BR,1733107577
109,Constanța,44.1833,28.65,39.88,74,100,16.15,RO,1733107465
110,As Sulayyil,20.4607,45.5779,58.53,49,6,9.15,SA,1733107579
111,San Antonio de Palé,-1.4014,5.6325,78.6,84,96,5.86,GQ,1733107581
112,Bo`ka,40.8108,69.1986,39.33,71,6,3.76,UZ,1733107582
113,Port Saint John's,-31.6229,29.5448,69.19,93,100,9.17,ZA,1733107583
114,Hefei,31.8639,117.2808,59.02,47,0,4.47,CN,1733107542
115,Klyuchi,52.2667,79.1667,14.47,93,100,6.93,RU,1733107586
116,Oromocto,45.8351,-66.4792,31.93,74,100,4.61,CA,1733107587
117,Malye Derbety,47.9547,44.6808,29.44,91,41,3.02,RU,1733107588
118,Invercargill,-46.4,168.35,63.01,75,100,7.0,NZ,1733107589
119,Zaozërsk,69.4005,32.4476,23.45,96,100,11.41,RU,1733107591
120,New Norfolk,-42.7826,147.0587,64.42,69,100,7.23,AU,1733107592
121,Bhinga,27.7167,81.9333,63.93,54,0,3.06,IN,1733107593
122,Lebu,-37.6167,-73.65,52.74,82,22,14.05,CL,1733107419
123,Santana do Livramento,-30.8908,-55.5328,64.02,93,100,14.38,BR,1733107540
124,Acaraú,-2.8856,-40.12,78.64,80,18,11.68,BR,1733107598
125,Aasiaat,68.7098,-52.8699,-0.9,95,100,3.94,GL,1733107599
126,Nuuk,64.1835,-51.7216,29.01,86,100,2.3,GL,1733107548
127,Vermillion,42.7794,-96.9292,16.93,94,100,2.08,US,1733107502
128,Wexford,52.3342,-6.4575,47.89,96,51,18.01,IE,1733107440
129,Half Moon Bay,37.4636,-122.4286,59.97,67,66,3.11,US,1733107424
130,Praia da Vitória,38.7333,-27.0667,62.85,100,75,3.83,PT,1733107605
131,Tazovsky,67.4667,78.7,8.33,96,100,7.56,RU,1733107607
132,Lhokseumawe,5.1801,97.1507,76.42,93,100,6.4,ID,1733107608
133,Ust-Nera,64.5667,143.2,1.45,99,100,1.57,RU,1733107609
134,Bubaque,11.2833,-15.8333,82.4,57,79,8.01,GW,1733107610
135,Gadzhiyevo,69.2551,33.3362,24.55,96,100,13.38,RU,1733107611
136,Arawa,-6.2132,155.5367,83.98,82,53,0.49,PG,1733107613
137,Bolgatanga,10.7856,-0.8514,72.79,29,100,6.08,GH,1733107614
138,Dunedin,-45.8742,170.5036,62.8,80,100,5.01,NZ,1733107615
139,Verāval,20.9,70.3667,70.41,37,48,10.85,IN,1733107617
140,Kavieng,-2.5744,150.7967,84.92,68,55,2.3,PG,1733107618
141,Tual,-5.6667,132.75,84.47,68,100,6.44,ID,1733107619
142,Mersing,2.4312,103.8405,85.91,74,20,8.05,MY,1733107620
143,Mahīshādal,22.1833,87.9833,75.7,38,100,8.28,IN,1733107622
144,Chonchi,-42.6128,-73.8092,46.11,74,45,3.78,CL,1733107623
145,Crane,31.3974,-102.3501,55.42,48,0,9.42,US,1733107624
146,Paita,-5.0892,-81.1144,67.26,87,7,12.8,PE,1733107625
147,Kiffa,16.6166,-11.4045,69.73,14,100,9.13,MR,1733107626
148,Afaahiti,-17.75,-149.2833,79.7,79,81,12.1,PF,1733107628
149,Mezhdurechenskiy,59.6,65.9333,23.02,92,100,10.13,RU,1733107629
150,Ilulissat,69.2167,-51.1,10.42,61,40,9.22,GL,1733107630
151,Thunder Bay,48.4001,-89.3168,21.18,79,100,6.91,CA,1733107549
152,Korla,41.7597,86.1469,34.21,58,74,1.45,CN,1733107633
153,La Barca,20.2833,-102.5667,62.85,42,0,1.97,MX,1733107634
154,Hasaki,35.7333,140.8333,60.35,60,83,13.76,JP,1733107635
155,Whakatane,-37.9585,176.9854,69.12,68,93,6.87,NZ,1733107636
156,Anadyr,64.75,177.4833,21.7,93,100,11.18,RU,1733107637
157,Likiep,9.8251,169.3107,82.11,80,89,22.03,MH,1733107639
158,Aitape,-3.1374,142.3475,86.41,66,38,6.22,PG,1733107640
159,Flying Fish Cove,-10.4217,105.6791,82.53,73,16,5.1,CX,1733107641
160,Aweil,8.7682,27.4002,66.58,27,2,4.79,SS,1733107642
161,Hammerfest,70.6634,23.6821,23.45,93,100,21.85,NO,1733107643
162,Ryōtsu-minato,38.0833,138.4333,53.24,69,10,6.58,JP,1733107645
163,Selfoss,63.9331,-20.9971,12.04,57,4,9.31,IS,1733107646
164,Laikit,1.4792,124.9735,76.05,89,75,6.91,ID,1733107647
165,Nerchinsk,51.9833,116.5833,-5.42,87,100,3.2,RU,1733107649
166,Ajdabiya,30.7554,20.2263,62.2,64,57,11.97,LY,1733107650
167,Gaspé,48.8334,-64.4819,26.82,80,75,9.22,CA,1733107651
168,Mejit,10.2753,170.8646,81.9,81,55,21.16,MH,1733107652
169,Lihue,21.9789,-159.3672,78.39,71,0,9.22,US,1733107654
170,Osorno,-40.5667,-73.15,50.31,71,0,3.44,CL,1733107371
171,Monrovia,6.3005,-10.7969,78.04,80,8,1.97,LR,1733107656
172,Chilecito,-29.1619,-67.4974,67.6,58,0,13.82,AR,1733107657
173,Rabo de Peixe,37.8,-25.5833,63.99,99,20,3.44,PT,1733107658
174,Tura,25.5198,90.2201,71.26,61,67,0.96,IN,1733107660
175,Coquimbo,-29.9533,-71.3436,58.73,84,0,6.91,CL,1733107544
176,Siteki,-26.45,31.95,58.14,96,6,1.72,SZ,1733107664
177,Pemangkat,1.1667,108.9667,83.86,74,100,8.61,ID,1733107665
178,Bandon,51.7469,-8.7425,45.99,72,91,15.73,IE,1733107666
179,Iqaluit,63.7506,-68.5145,13.73,73,100,12.66,CA,1733107667
180,Beryozovo,63.9381,65.0419,7.41,98,46,5.46,RU,1733107668
181,Tshabong,-26.05,22.45,65.26,12,0,1.1,BW,1733107670
182,Burao,9.5221,45.5336,63.01,60,5,5.37,SO,1733107672
183,Caleta Olivia,-46.4393,-67.5281,49.19,54,100,11.52,AR,1733107576
184,Eyl,7.9803,49.8164,74.37,82,63,12.44,SO,1733107675
185,Semera,11.501,41.201,71.22,61,16,6.55,ET,1733107676
186,Gyangze,28.95,89.6333,24.75,32,0,3.13,CN,1733107677
187,Howrah,22.5892,88.3103,71.6,68,75,3.44,IN,1733107678
188,Phek,25.6667,94.5,58.91,71,42,2.06,IN,1733107679
189,Al Jawf,29.5,38.75,49.15,56,38,2.42,SA,1733107682
190,San Patricio,28.017,-97.5169,66.15,75,100,11.72,US,1733107683
191,Alofi,-19.0595,-169.9187,84.09,65,100,8.05,NU,1733107684
192,Muynak,43.7683,59.0214,40.57,62,100,8.39,UZ,1733107685
193,Inongo,-1.95,18.2667,71.82,92,98,3.29,CD,1733107687
194,Conselheiro Pena,-19.1722,-41.4722,74.37,97,100,3.91,BR,1733107688
195,Suamico,44.6319,-88.0393,23.29,77,100,11.5,US,1733107689
196,Kittilä,67.6647,24.8936,33.94,100,100,6.91,FI,1733107690
197,Inírida,3.8653,-67.9239,75.22,93,78,2.37,CO,1733107692
198,Saposoa,-6.934,-76.7716,78.93,65,74,2.13,PE,1733107693
199,Vadsø,70.0744,29.7487,26.76,93,100,21.85,NO,1733107694
200,Darwin,-12.4611,130.8418,90.95,70,75,10.36,AU,1733107695
201,Hermanus,-34.4187,19.2345,54.81,82,31,2.04,ZA,1733107696
202,Bima,-8.4667,118.7167,84.11,80,100,2.84,ID,1733107698
203,Utrik,11.2278,169.8474,82.0,74,48,20.96,MH,1733107699
204,Sake,-1.5736,29.045,62.47,95,98,1.21,CD,1733107700
205,Lorengau,-2.0226,147.2712,87.53,57,80,2.57,PG,1733107701
206,Punta Arenas,-53.15,-70.9167,42.91,75,75,18.41,CL,1733107703
207,Touros,-5.1989,-35.4608,78.39,85,17,11.34,BR,1733107704
208,Enewetak,11.3474,162.3373,82.49,82,50,23.49,MH,1733107706
209,Kelsterbach,50.0667,8.5333,35.19,93,100,0.0,DE,1733107708
210,Finisterra,42.9049,-9.2629,57.81,87,4,10.8,ES,1733107709
211,Uporovo,56.3109,66.2693,18.72,95,97,9.28,RU,1733107710
212,Tangalle,6.024,80.7911,82.47,71,60,12.95,LK,1733107711
213,Malango,-2.9627,119.9001,75.0,84,89,2.51,ID,1733107713
214,Kalianget,-7.05,113.9333,81.57,78,100,3.96,ID,1733107714
215,Ajaigarh,24.9,80.2667,64.54,38,49,0.51,IN,1733107715
216,Presidente Epitácio,-21.7633,-52.1156,82.69,60,34,9.86,BR,1733107717
217,Constitución,-35.3333,-72.4167,51.03,84,0,10.94,CL,1733107693
218,Mount Gambier,-37.8333,140.7667,85.1,25,99,11.21,AU,1733107720
219,La Foa,-21.7108,165.8276,82.74,60,83,6.69,NC,1733107694
220,San Luis de la Loma,17.2706,-100.8939,76.77,85,0,4.09,MX,1733107723
221,Sekong,-6.3996,106.0252,82.72,71,100,5.77,ID,1733107724
222,Sittwe,20.15,92.9,79.48,75,94,6.49,MM,1733107725
223,Olinda,-8.0089,-34.8553,80.33,83,75,9.22,BR,1733107725
224,Ta`ū,-14.2336,-169.5144,82.63,72,100,14.61,AS,1733107728
225,Aginskoye,51.1,114.53,-2.43,77,15,9.35,RU,1733107729
226,Chibougamau,49.9168,-74.3659,17.22,93,100,3.44,CA,1733107479
227,Joaquín V. González,-25.0833,-64.1833,68.13,90,53,17.31,AR,1733107731
228,Cartagena,10.3997,-75.5144,82.02,94,0,5.75,CO,1733107660
229,Boryslav,49.2867,23.4324,35.62,91,0,3.44,UA,1733107734
230,Andilamena,-17.0167,48.5833,64.71,89,98,3.15,MG,1733107735
231,Severobaykal'sk,55.65,109.3167,4.26,69,8,5.01,RU,1733107736
232,Santuario,6.1383,-75.2642,62.42,90,40,0.0,CO,1733107737
233,Murghab,38.1702,73.9667,6.01,90,100,3.18,TJ,1733107739
234,Hithadhoo,-0.6,73.0833,81.81,81,100,22.1,MV,1733107740
235,Sinabang,2.4803,96.3801,79.48,80,100,3.33,ID,1733107741
236,Pariaman,-0.619,100.12,75.25,94,100,7.27,ID,1733107742
237,Rémire-Montjoly,4.9167,-52.2667,78.84,94,75,2.3,GF,1733107744
238,Mpraeso,6.5932,-0.7346,67.89,56,0,2.26,GH,1733107745
239,Aripuanã,-9.1667,-60.6333,75.85,83,98,2.35,BR,1733107746
240,Kaa-Khem,51.6833,94.7333,8.47,89,93,1.52,RU,1733107747
241,Qaqortoq,60.7167,-46.0333,29.84,98,100,6.53,GL,1733107748
242,Stanley,54.868,-1.6985,44.62,92,75,5.75,GB,1733107750
243,Longonjo,-12.9067,15.2533,62.47,89,100,1.59,AO,1733107751
244,Makaha,21.4694,-158.2175,80.51,61,100,9.22,US,1733107752
245,Horta,38.5333,-28.6333,64.02,92,63,3.0,PT,1733107753
246,Atafu Village,-8.5421,-172.5159,83.84,73,22,14.34,TK,1733107755
247,Uturoa,-16.7333,-151.4333,82.98,71,97,6.64,PF,1733107756
248,Serenje,-13.2325,30.2352,57.27,90,68,3.47,ZM,1733107757
249,Mandan,46.8267,-100.8896,8.58,81,75,19.57,US,1733107548
250,Puerto Baquerizo Moreno,-0.9,-89.6,70.75,87,77,10.47,EC,1733107760
251,Nakamura,32.9833,132.9333,65.91,54,1,1.66,JP,1733107761
252,Vila Franca do Campo,37.7167,-25.4333,64.89,99,85,4.29,PT,1733107762
253,Arraial do Cabo,-22.9661,-42.0278,73.62,92,3,18.52,BR,1733107763
254,Al Bāb,36.3699,37.5179,42.03,59,3,2.26,SY,1733107765
255,Inhumas,-16.3578,-49.4961,68.76,95,100,4.05,BR,1733107766
256,Campo Belo,-20.8972,-45.2772,68.4,92,99,3.42,BR,1733107767
257,Imatra,61.1719,28.7524,43.12,89,100,18.3,FI,1733107768
258,Ayr,55.4627,-4.6339,49.1,95,75,3.44,GB,1733107769
259,Kharp,66.8014,65.8081,7.27,93,94,6.85,RU,1733107771
260,Manturovo,58.3353,44.7619,33.57,98,100,6.85,RU,1733107772
261,Coruripe,-10.1256,-36.1756,76.37,88,32,13.09,BR,1733107773
262,Rābigh,22.7986,39.0349,71.55,61,0,3.78,SA,1733107774
263,Puente Alto,-33.6167,-70.5833,63.25,53,0,3.04,CL,1733107511
264,Nadi,-17.8,177.4167,84.2,74,75,16.11,FJ,1733107741
265,Flin Flon,54.7682,-101.865,-3.12,100,30,2.28,CA,1733107778
266,Kavaratti,10.5669,72.642,81.5,65,66,13.42,IN,1733107779
267,Port Moresby,-9.4431,147.1797,92.62,59,40,17.27,PG,1733107782
268,Široki Brijeg,43.3833,17.5928,34.72,87,11,6.17,BA,1733107783
269,Olyokminsk,60.3736,120.4264,-8.09,93,100,4.03,RU,1733107784
270,San Jose,37.3394,-121.895,58.14,66,40,1.01,US,1733107785
271,Cecerleg,47.475,101.4542,17.2,49,5,5.53,MN,1733107786
272,Nema,57.5067,50.5011,32.95,98,100,6.69,RU,1733107788
273,San Bernardo del Viento,9.3533,-75.9524,80.67,87,92,5.73,CO,1733107789
274,Īstgāh-e Rāh Āhan-e Garmsār,35.2346,52.3094,39.49,54,0,2.68,IR,1733107790
275,Kruisfontein,-34.0033,24.7314,57.06,86,27,6.26,ZA,1733107791
276,Cooper’s Town,26.8667,-77.5167,71.28,82,100,12.46,BS,1733107793
277,Pasni,25.2631,63.471,71.35,40,0,16.93,PK,1733107794
278,Yenangyaung,20.4667,94.8833,78.39,55,46,8.25,MM,1733107795
279,Rio Grande,-32.035,-52.0986,71.19,92,100,15.82,BR,1733107745
280,Shimoda,34.6667,138.95,59.65,54,0,5.53,JP,1733107798
281,Mili,6.0815,171.735,81.88,80,100,13.06,MH,1733107799
282,Revelstoke,50.9832,-118.2023,33.82,100,75,2.3,CA,1733107701
283,Ulsteinvik,62.3432,5.8487,42.93,92,100,1.01,NO,1733107801
284,Grants Pass,42.439,-123.3284,59.68,93,100,5.75,US,1733107802
285,Nemuro,43.3236,145.575,39.56,52,17,2.3,JP,1733107804
286,Basco,20.4487,121.9702,77.86,71,68,20.09,PH,1733107805
287,Meulaboh,4.1363,96.1285,79.63,85,100,3.4,ID,1733107806
288,McMinnville,45.2101,-123.1987,35.76,97,100,3.44,US,1733107807
289,Vernon,50.2581,-119.2691,35.76,79,100,1.01,CA,1733107808
290,Ocotal,13.6321,-86.4752,70.88,97,100,5.66,NI,1733107810
291,Luau,-10.7073,22.2247,63.75,97,90,3.85,AO,1733107811
292,Codrington,-38.2667,141.9667,80.19,40,72,14.38,AU,1733107812
293,Khanty-Mansiysk,61.0042,69.0019,19.51,86,75,8.95,RU,1733107813
294,Hassi Messaoud,31.6804,6.0729,54.27,48,30,2.98,DZ,1733107815
295,Whitehorse,60.7161,-135.0538,2.17,77,100,10.36,CA,1733107816
296,Nizhnesortymskiy,62.4397,71.7603,11.68,97,100,7.07,RU,1733107817
297,Kudahuvadhoo,2.6708,72.8944,82.9,75,20,18.39,MV,1733107818
298,Wenchang,30.904,118.4887,64.98,44,0,2.64,CN,1733107819
299,Berezovyy,51.6667,135.7,13.91,89,100,3.89,RU,1733107821
300,Zeya,53.75,127.2667,8.78,88,100,5.28,RU,1733107822
301,Miguel Alves,-4.1656,-42.8953,76.75,84,100,5.55,BR,1733107824
302,La Ronge,55.1001,-105.2842,-7.35,84,20,3.44,CA,1733107825
303,Holmsund,63.706,20.3641,42.75,86,75,17.27,SE,1733107827
304,Lompoc,34.6391,-120.4579,55.02,80,0,1.01,US,1733107828
305,Weno,7.4515,151.8468,83.71,77,24,15.05,FM,1733107829
306,Isangel,-19.55,169.2667,84.31,79,75,6.91,VU,1733107830
307,Kakonko,-3.2828,30.9642,64.27,96,100,2.77,TZ,1733107832
308,Villa Gesell,-37.2639,-56.973,56.57,76,1,26.08,AR,1733107833
309,Emerald,-23.5333,148.1667,92.34,46,1,13.31,AU,1733107834
310,Parnarama,-5.6817,-43.0933,76.32,79,82,2.75,BR,1733107835
311,Udaipura,23.0833,78.5,61.59,46,88,6.6,IN,1733107836
312,North Bend,43.4065,-124.2243,40.91,93,0,0.0,US,1733107838
313,Ghadames,30.1337,9.5007,53.4,61,2,6.91,LY,1733107839
314,Kailua-Kona,19.6406,-155.9956,81.59,58,20,10.36,US,1733107840
315,Margate,51.3813,1.3862,51.87,88,66,17.72,GB,1733107796
316,Naze,28.3667,129.4833,70.72,53,48,6.42,JP,1733107843
317,El Bagre,7.5927,-74.8086,75.61,99,100,0.67,CO,1733107844
318,Sandnessjøen,66.0217,12.6316,36.41,93,100,49.57,NO,1733107845
319,Kyrenia,35.3417,33.3167,44.15,78,100,7.27,CY,1733107847
320,Taro,-8.3862,115.28,78.19,75,100,1.83,ID,1733107848
321,Sitka,57.0531,-135.33,44.49,81,100,6.91,US,1733107849
322,Neryungri,56.6709,124.6491,-11.43,91,100,9.53,RU,1733107850
323,Chegdomyn,51.1167,133.0167,18.59,88,100,1.36,RU,1733107851
324,Ocean City,39.2776,-74.5746,37.0,64,100,4.0,US,1733107853
325,Justo Daract,-33.8594,-65.1828,61.16,29,0,11.1,AR,1733107754
326,Atherton,53.5237,-2.4935,49.28,93,82,1.99,GB,1733107855
327,Kingston,17.997,-76.7936,81.55,83,20,6.91,JM,1733107715
328,Sault Ste. Marie,46.5168,-84.3333,19.69,100,75,0.0,CA,1733107759
329,Nadvoitsy,63.8667,34.3167,40.69,90,100,16.53,RU,1733107859
330,Khiva,41.3783,60.3639,34.72,63,18,5.77,UZ,1733107860
331,Shimanovsk,52.0,127.7,5.54,93,100,7.85,RU,1733107861
332,Arkhangelsk,64.5401,40.5433,35.71,100,100,11.18,RU,1733107862
333,Lagi,10.6667,107.7833,79.99,77,100,4.79,VN,1733107864
334,Tūghyl,47.7252,84.2063,34.0,85,100,5.84,KZ,1733107865
335,Luanda,-8.8368,13.2343,78.8,89,75,4.61,AO,1733107677
336,Kerikeri,-35.2268,173.9474,68.76,58,15,8.01,NZ,1733107869
337,Jayapura,-2.5333,140.7,87.19,73,87,5.12,ID,1733107870
338,Ntungamo,-0.8833,29.65,63.19,95,89,2.73,UG,1733107871
339,Sovetskaya Gavan',48.9723,140.2878,25.93,63,95,2.35,RU,1733107872
340,Chorbane,35.2858,10.3858,53.53,66,1,7.25,TN,1733107874
341,São José da Coroa Grande,-8.8978,-35.1478,77.67,86,37,12.15,BR,1733107875
342,Ormara,25.2088,64.6357,75.04,66,0,3.62,PK,1733107876
343,Mongo,12.1844,18.693,65.08,22,41,5.41,TD,1733107877
344,Tamanghasset,22.785,5.5228,54.25,25,45,2.82,DZ,1733107878
345,Castillos,-34.1667,-53.8333,63.16,92,100,17.94,UY,1733107880
346,Aoulef,26.9667,1.0833,60.76,29,100,12.26,DZ,1733107881
347,La Sarre,48.8002,-79.1996,23.61,94,98,8.14,CA,1733107882
348,Arica,-18.475,-70.3042,66.43,72,0,4.61,CL,1733107739
349,Mthatha,-31.5889,28.7844,61.36,100,100,6.91,ZA,1733107885
350,Paros,37.0833,25.15,62.31,67,41,8.05,GR,1733107886
351,Türkmenbaşy,40.0222,52.9552,39.97,81,100,6.91,TM,1733107888
352,Nikolayevsk-on-Amur,53.1406,140.73,21.52,92,86,4.52,RU,1733107890
353,Burutu,5.3509,5.5076,78.62,80,8,3.98,NG,1733107891
354,Labrador City,52.9463,-66.9114,20.17,83,100,14.97,CA,1733107892
355,Halifax,44.6453,-63.5724,38.21,75,90,6.91,CA,1733107704
356,Impfondo,1.6381,18.0667,71.4,78,16,1.34,CG,1733107895
357,Fada N'gourma,12.0622,0.3578,70.02,27,94,8.41,BF,1733107896
358,Gannan,47.9147,123.5031,3.07,75,6,11.59,CN,1733107897
359,Lospalos,-8.5186,127.0025,83.62,70,100,5.61,TL,1733107899
360,Saint Croix,17.7397,-64.7388,81.05,86,40,6.91,VI,1733107900
361,Yanchep,-31.55,115.6833,68.0,53,44,15.59,AU,1733107901
362,Calingasta,-31.3308,-69.4078,60.21,38,0,10.45,AR,1733107902
363,Martin,27.0837,-80.4164,60.94,70,0,1.99,US,1733107904
364,Fortuna,40.5982,-124.1573,47.32,100,0,8.05,US,1733107905
365,Cabedelo,-6.9811,-34.8339,79.47,86,33,12.64,BR,1733107906
366,Kurmuk,10.55,34.2833,69.22,39,25,3.67,SD,1733107907
367,Guéret,46.1667,1.8667,51.62,87,100,4.23,FR,1733107909
368,Broken Hill,-31.95,141.4333,81.79,42,100,26.17,AU,1733107910
369,Koné,-21.0595,164.8658,86.25,53,65,7.25,NC,1733107911
370,Queenstown,-31.8976,26.8753,55.27,94,99,3.4,ZA,1733107912
371,Kununurra,-15.7667,128.7333,93.18,59,100,10.36,AU,1733107913
372,Port Augusta,-32.5,137.7667,79.75,49,100,12.62,AU,1733107915
373,Piti Village,13.4626,144.6933,88.68,72,40,17.27,GU,1733107916
374,Salalah,17.0151,54.0924,75.29,41,0,11.5,OM,1733107917
375,Tidjikja,18.5564,-11.4271,66.38,18,100,11.7,MR,1733107918
376,Salekhard,66.53,66.6019,8.42,90,66,10.09,RU,1733107919
377,Sauðarkrokur,65.7461,-19.6394,5.49,88,46,10.11,IS,1733107921
378,Fuglafjørður,62.244,-6.814,29.71,74,100,24.72,FO,1733107922
379,Ancud,-41.8697,-73.8203,46.15,75,14,7.74,CL,1733107923
380,Gargždai,55.7128,21.4033,33.8,94,77,10.78,LT,1733107924
381,Zhlobin,52.8926,30.024,37.51,90,100,6.17,BY,1733107925
382,Energetik,51.7445,58.7934,24.78,92,100,8.95,RU,1733107926
383,Hadibu,12.65,54.0333,76.89,69,23,9.6,YE,1733107928
384,Maru,12.3342,6.4057,67.55,20,100,12.5,NG,1733107929
385,Urucará,-2.5364,-57.76,82.27,53,52,3.89,BR,1733107930
386,Smithers,54.7804,-127.1743,25.12,93,100,0.0,CA,1733107931
387,Phan Thiet,10.9333,108.1,79.9,76,95,2.44,VN,1733107932
388,Amuñgan,15.3652,119.9582,83.34,71,76,5.26,PH,1733107934
389,Susuman,62.7833,148.1667,6.31,95,97,3.49,RU,1733107935
390,Pandan,14.0453,124.1694,83.32,80,53,5.44,PH,1733107936
391,Arboletes,8.8505,-76.4269,79.16,89,100,6.06,CO,1733107937
392,Tofol,5.3248,163.0078,89.38,70,75,6.91,FM,1733107939
393,East London,-33.0153,27.9116,65.86,78,100,9.04,ZA,1733107940
394,Birjand,32.8663,59.2211,32.2,75,0,2.86,IR,1733107941
395,La Bresse,47.9997,6.865,37.72,77,100,4.52,FR,1733107942
396,Genhe,50.7833,121.5167,-4.5,79,100,8.16,CN,1733107943
397,Quellón,-43.1167,-73.6167,48.69,66,66,10.83,CL,1733107945
398,Egilsstadir,65.2653,-14.3948,3.11,78,0,8.05,IS,1733107946
399,Madalena,41.2162,-8.3345,60.55,94,100,1.97,PT,1733107949
400,Zottegem,50.8662,3.809,51.37,97,37,12.01,BE,1733107950
401,Market Harborough,52.4776,-0.9205,50.52,90,44,8.99,GB,1733107951
402,Tarnogskiy Gorodok,60.4997,43.5761,35.64,98,100,9.33,RU,1733107952
403,Wenatchee,47.4235,-120.3103,36.05,80,93,1.01,US,1733107817
404,Fort Bragg,35.139,-79.006,37.24,78,0,0.0,US,1733107955
405,Tongouson,5.0214,120.1328,84.92,71,100,4.05,PH,1733107956
406,Xigazê,29.25,88.8833,35.37,29,0,1.63,CN,1733107957
407,Vila Velha,-20.3297,-40.2925,76.95,94,75,3.44,BR,1733107721
408,Sinop Province,41.7711,34.8709,33.8,83,7,8.72,TR,1733107961
409,Kuta,-8.7233,115.1723,85.95,79,40,11.5,ID,1733107962
410,Metro,-5.1131,105.3067,82.51,71,100,3.74,ID,1733107963
411,Newman,37.3138,-121.0208,52.03,85,26,4.45,US,1733107965
412,Al Bardīyah,31.7561,25.0865,62.42,70,100,10.36,LY,1733107968
413,George Town,5.4112,100.3354,84.13,69,20,5.75,MY,1733107830
414,Berlin,52.5244,13.4105,32.95,87,0,5.01,DE,1733107924
415,Kolonia Town,6.964,158.206,89.71,70,100,12.66,FM,1733107972
416,Camabatela,-8.1881,15.375,60.31,95,87,1.66,AO,1733107973
417,Khandyga,62.6667,135.6,-10.01,92,100,0.83,RU,1733107974
418,Kani Keli,-12.9536,45.1033,78.06,67,62,9.01,YT,1733107975
419,Chamdo,31.1667,97.2333,29.23,37,7,4.7,CN,1733107977
420,Kargasok,59.0556,80.8572,9.88,96,81,7.47,RU,1733107978
421,Talara,-4.5772,-81.2719,68.76,88,0,16.11,PE,1733107979
422,Dryden,49.7833,-92.7503,16.09,92,100,5.75,CA,1733107980
423,Kazygurt,41.7589,69.3864,34.09,64,8,4.16,KZ,1733107982
424,San Diego Country Estates,33.0067,-116.7836,57.96,43,0,0.0,US,1733107983
425,Inhambane,-23.865,35.3833,72.5,75,0,6.69,MZ,1733107984
426,Cromer,52.9312,1.2989,50.14,88,52,16.51,GB,1733107985
427,Concordia,-31.393,-58.0209,64.78,89,85,1.99,AR,1733107757
428,Machico,32.7,-16.7667,66.7,82,75,12.66,PT,1733107988
429,Banda Aceh,5.5577,95.3222,80.58,79,100,7.34,ID,1733107989
430,Taltal,-25.4,-70.4833,64.87,70,4,2.62,CL,1733107990
431,Sterling,39.0062,-77.4286,33.15,69,0,8.05,US,1733107880
432,Vilyuchinsk,52.9306,158.4028,32.27,98,100,5.79,RU,1733107993
433,Faya-Largeau,17.9257,19.1043,61.34,35,18,17.45,TD,1733107994
434,Tosontsengel,48.7567,98.2839,1.04,94,88,2.28,MN,1733107995
435,Sorong,-0.8833,131.25,84.72,73,97,7.43,ID,1733107996
436,Lüderitz,-26.6481,15.1594,61.75,63,0,21.03,NA,1733107997
437,Dzilam González,21.2833,-88.9333,69.31,84,2,3.91,MX,1733107999
438,Sur,22.5667,59.5289,75.74,59,0,13.76,OM,1733108000
439,Meadow Lakes,61.6247,-149.6011,19.27,43,100,16.11,US,1733108001
440,Charlestown,-32.95,151.6667,94.78,35,1,9.82,AU,1733108002
441,Itamaracá,-7.7478,-34.8256,77.97,85,56,9.66,BR,1733108003
442,Fredericton,45.9454,-66.6656,31.05,74,100,4.61,CA,1733107748
443,Pôsto Fiscal Rolim de Moura,-13.0833,-62.2667,77.67,79,100,3.15,BR,1733108006
444,Mora,11.0461,14.1401,62.62,38,80,3.56,CM,1733107868
445,Trogir,43.5125,16.2517,50.05,53,0,5.75,HR,1733108008
446,Šumperk,49.9653,16.9706,42.28,96,48,3.15,CZ,1733108010
447,Port Macquarie,-31.4333,152.9167,83.07,70,0,5.99,AU,1733108011
448,Al Muwayh,22.4333,41.7583,62.2,51,4,3.06,SA,1733108012
449,Balakliya,49.4627,36.8595,28.35,91,24,1.68,UA,1733108013
450,Taoudenni,22.6783,-3.9836,66.43,21,100,9.89,ML,1733108014
451,Port Sudan,19.6175,37.2164,72.45,69,25,10.04,SD,1733108017
452,Lautoka,-17.6167,177.4667,84.06,74,75,16.11,FJ,1733108018
453,Iskateley,67.6803,53.1512,22.06,92,100,14.32,RU,1733108019
454,Bulawayo,-20.15,28.5833,61.07,46,0,6.49,ZW,1733108020
455,Port Alfred,-33.5906,26.891,60.19,94,100,1.01,ZA,1733108022
456,Melo,-32.3667,-54.1833,64.58,93,100,20.94,UY,1733108023
457,Nishifukuma,33.7667,130.4667,65.28,58,6,5.99,JP,1733108024
458,Lā‘ie,21.6477,-157.9253,79.99,68,62,3.0,US,1733108025
459,Praia,14.9215,-23.5087,73.94,83,99,11.5,CV,1733108027
460,Guozhen,34.3659,107.359,49.46,30,72,2.33,CN,1733108028
461,Zyryanskoye,56.8306,86.6258,10.24,94,100,7.23,RU,1733108029
462,Kimbe,-5.5502,150.1429,84.67,80,70,4.25,PG,1733108031
463,Lázaro Cárdenas,17.9583,-102.2,76.93,87,0,2.39,MX,1733108032
464,Toliara,-23.35,43.6667,73.83,73,0,11.88,MG,1733108033
465,Amos,48.5669,-78.1162,23.88,95,99,6.29,CA,1733107844
466,Nālūt,30.3333,10.85,50.81,68,0,6.29,LY,1733108037
467,Bāfq,31.6128,55.4107,38.21,42,7,1.86,IR,1733108038
468,Mossamedes,-15.1961,12.1522,68.4,81,97,5.37,AO,1733108039
469,Santiago de Cao,-7.9589,-79.2392,66.33,82,75,11.5,PE,1733108040
470,Murashi,59.3999,48.9615,33.19,98,100,7.07,RU,1733108042
471,Marabu,4.4148,114.0089,87.94,70,40,3.44,MY,1733108043
472,Leava,-14.3,-178.1667,83.07,74,99,5.99,WF,1733108044
473,Ola,59.5833,151.2833,28.08,81,92,11.79,RU,1733108045
474,Fómeque,4.488,-73.8975,56.44,100,92,0.69,CO,1733108046
475,Barcelos,41.5388,-8.6151,54.95,95,93,2.95,PT,1733107824
476,Naifaru,5.4444,73.3657,81.81,75,87,14.74,MV,1733108049
477,Portland,45.5234,-122.6762,40.68,79,0,10.0,US,1733107710
478,Bīdar,17.9,77.55,72.41,86,100,9.42,IN,1733108052
479,Paracuru,-3.41,-39.0306,79.77,76,100,12.46,BR,1733107844
480,Tromsø,69.6496,18.957,24.82,100,100,1.14,NO,1733107987
481,Klaksvík,62.2266,-6.589,31.3,76,100,27.98,FO,1733108055
482,Revda,56.801,59.9303,25.23,89,97,11.36,RU,1733108056
483,Lianshan,40.7643,120.8533,29.77,27,0,18.07,CN,1733108058
484,Kill Devil Hills,36.0307,-75.676,44.62,64,0,8.05,US,1733108060
485,Szczecin,53.4289,14.553,30.42,93,12,13.0,PL,1733107808
486,Berdigestyakh,62.0989,126.6992,-11.31,96,100,4.76,RU,1733108063
487,Carnarvon,-24.8667,113.6333,73.35,61,15,15.64,AU,1733108064
488,Priozersk,61.0393,30.1291,42.01,88,100,17.27,RU,1733108065
489,Muroto-misakicho,33.2833,134.15,60.64,62,2,5.12,JP,1733108066
490,Minas de Marcona,-15.2119,-75.1103,59.41,88,100,11.79,PE,1733108067
491,Magdalena de Kino,30.6333,-110.95,59.18,37,17,2.13,MX,1733108069
492,Hamar,60.7945,11.068,44.06,93,100,5.73,NO,1733108070
493,Alexandroupoli,40.8475,25.8744,49.59,83,100,24.92,GR,1733108073
494,Pont Rouge,48.8833,-72.0825,22.82,86,95,4.16,CA,1733107977
495,Ārvi,20.9833,78.2333,70.3,47,100,7.02,IN,1733108075
496,Roses,42.262,3.1769,49.32,81,33,3.33,ES,1733108076
497,Tuy Hoa,13.0833,109.3,78.66,78,97,9.33,VN,1733108078
498,Esil,51.9556,66.4042,4.87,99,87,5.48,KZ,1733108079
499,Zag,46.9441,99.165,-2.67,91,39,2.19,MN,1733108080
500,Ciudad Tula,23.0,-99.7167,56.88,93,2,4.99,MX,1733108081
501,Makushino,55.2103,67.2442,17.51,92,100,9.75,RU,1733108083
502,Byalynichy,53.9983,29.7126,36.16,94,100,7.58,BY,1733108084
503,Yigo Village,13.5361,144.8886,87.12,69,40,18.41,GU,1733108086
504,Gonābād,34.3529,58.6837,32.27,74,1,2.42,IR,1733108087
505,Magadan,59.5667,150.8,26.56,77,53,14.52,RU,1733108089
506,Tamiahua,21.2667,-97.45,74.19,88,100,5.3,MX,1733108090
507,Laishevo,55.4046,49.5504,34.02,98,100,11.21,RU,1733108091
508,Dakhla,23.6848,-15.958,69.84,50,0,7.31,EH,1733108092
509,Tame,6.461,-71.73,76.95,69,95,4.63,CO,1733108094
510,Kota Belud,6.351,116.4305,84.63,68,100,4.43,MY,1733108095
511,Sierra Grande,-41.606,-65.3557,52.52,45,57,6.71,AR,1733108096
512,Ubinskoye,55.3068,79.6802,3.31,99,89,5.79,RU,1733108097
513,Tarawa,1.419,172.984,89.69,70,75,13.8,KI,1733108098
514,Fort St. John,56.2499,-120.8529,-4.11,77,100,10.36,CA,1733108101
515,Bamboo Flat,11.7,92.7167,84.29,74,40,4.61,IN,1733108102
516,Saskatoon,52.1168,-106.6345,-14.03,75,0,4.61,CA,1733107807
517,Kikwit,-5.041,18.8162,69.85,99,100,1.05,CD,1733108104
518,Turaif,31.6725,38.6637,39.45,60,0,4.61,SA,1733108106
519,Mahanje,-9.9333,35.3333,62.82,92,98,2.35,TZ,1733108107
520,Aykhal,66.0,111.5,-19.7,87,85,8.03,RU,1733108109
521,Ayoun El Atrous,16.6614,-9.6149,67.05,15,74,9.6,MR,1733108111
522,Murzuk,25.9155,13.9184,51.03,44,0,4.05,LY,1733108112
523,Charthāwal,29.55,77.5833,60.49,44,0,4.21,IN,1733108113
524,Fontanelas,38.8472,-9.4372,60.15,87,66,4.74,PT,1733108114
525,Zwedru,6.0667,-8.1281,70.63,93,30,2.82,LR,1733108116
526,Keflavik,64.0049,-22.5624,16.23,67,75,6.91,IS,1733108117
527,Carutapera,-1.195,-46.02,78.73,83,1,5.86,BR,1733108118
528,Marabá,-5.3686,-49.1178,78.98,94,83,0.0,BR,1733108101
529,Mountain Home,43.133,-115.6912,29.01,81,0,0.0,US,1733108120
530,Saint-Joseph,-21.3667,55.6167,75.58,80,84,7.74,RE,1733108122
531,Saint-Pierre,-21.3393,55.4781,76.68,61,100,3.44,RE,1733108123
532,Wej,26.2455,36.4525,64.35,42,0,5.75,SA,1733108124
533,Broome,42.2506,-75.833,26.53,74,40,10.36,US,1733108125
534,Manicoré,-5.8092,-61.3003,83.5,52,95,2.48,BR,1733108126
535,Anaconda,46.1285,-112.9423,29.28,78,81,7.78,US,1733108128
536,Filingué,14.3521,3.3168,67.26,17,69,9.04,NE,1733108129
537,Jianshui,23.6363,102.8264,63.0,73,8,3.27,CN,1733108130
538,Sechura,-5.5569,-80.8222,68.25,84,15,13.18,PE,1733108131
539,Aksu,41.1231,80.2644,33.55,48,79,3.33,CN,1733108133
540,Battle Ground,45.7809,-122.5334,38.73,91,34,3.29,US,1733108134
541,Eydhafushi,5.1033,73.0708,82.78,71,87,16.71,MV,1733108135
542,Isla,15.8939,120.3036,80.92,73,100,8.23,PH,1733108136
543,Port Hedland,-20.3167,118.5667,96.85,34,62,17.27,AU,1733108137
544,Porto-Novo,6.4965,2.6036,76.82,65,11,4.38,BJ,1733108139
545,Wabag,-5.4781,143.7021,67.46,83,80,3.83,PG,1733108140
546,Nāzirā,26.9167,94.7333,65.77,62,1,3.78,IN,1733108141
547,Venice of the Philippines,4.6628,119.3928,82.83,76,67,1.43,PH,1733108142
548,Pindi Bhattian,31.8978,73.273,63.03,39,0,1.83,PK,1733108143
549,Shannon,52.7039,-8.8642,46.4,81,20,11.5,IE,1733108145
550,Krasnovishersk,60.4078,57.082,28.67,96,100,7.4,RU,1733108146
551,Troitsko-Pechorsk,62.7084,56.1964,25.81,95,100,5.68,RU,1733108147
552,Glace Bay,46.1969,-59.957,30.78,81,40,6.91,CA,1733108148
553,Nzega,-2.479,29.5564,57.06,94,100,2.08,RW,1733108149
554,Lewistown,40.5992,-77.5714,31.41,51,100,6.91,US,1733107959
555,Tan-Tan,28.438,-11.1032,66.49,25,0,5.01,MA,1733108152
556,Twon-Brass,4.3151,6.2418,81.16,81,14,8.86,NG,1733108154
557,Mogok,22.9167,96.5,67.48,60,1,1.7,MM,1733108155
558,Semporna,4.4818,118.6112,87.42,66,99,2.57,MY,1733108157
559,Apolda,51.0167,11.5,33.3,50,49,1.01,DE,1733108158
560,Arauco,-37.2463,-73.3175,50.11,93,5,7.43,CL,1733108159
561,Villanueva,15.3167,-88.0,70.79,100,100,3.44,HN,1733108160
562,Xinqing,48.2333,129.5,6.37,80,99,11.92,CN,1733108161
563,Clear Lake,43.138,-93.3794,17.08,80,94,4.88,US,1733108163
564,Murraysville,34.2957,-77.8475,37.36,81,0,0.0,US,1733108164
565,Angatuba,-23.4897,-48.4128,72.81,77,47,2.73,BR,1733107933
566,Khovd,48.0056,91.6419,13.82,81,93,1.3,MN,1733108166
567,Itupiranga,-5.1347,-49.3267,74.28,87,74,1.83,BR,1733108167
568,Akureyri,65.6835,-18.0878,-0.47,85,0,6.91,IS,1733108169
569,Zhaotong,27.3167,103.7167,47.5,81,98,4.63,CN,1733108170
570,Fort-Shevchenko,44.5086,50.263,37.17,67,100,9.46,KZ,1733108171
571,Patacamaya,-17.2333,-67.9167,43.39,87,100,11.63,BO,1733108173
572,Kīevka,50.2619,71.5514,1.22,100,72,2.91,KZ,1733108174
573,Varto,39.1732,41.4559,18.12,72,13,5.57,TR,1733108117
574,Comodoro Rivadavia,-45.8667,-67.5,53.46,37,0,17.27,AR,1733108098
575,Decazeville,44.5605,2.2509,45.28,90,74,1.9,FR,1733108177
576,Verdal,63.7933,11.4817,43.84,93,100,12.24,NO,1733108179
577,Puerto Lempira,15.2667,-83.7667,77.99,90,100,9.55,HN,1733108180
578,Mudanya,40.3753,28.8822,51.48,83,99,5.01,TR,1733108181
579,Cidreira,-30.1811,-50.2056,70.41,100,100,14.29,BR,1733108182
580,Corn Island,12.1694,-83.0418,81.86,83,98,15.99,NI,1733108184
581,Waingapu,-9.6567,120.2641,87.1,67,94,12.39,ID,1733108185
582,Santa Sylvina,-27.8326,-61.1375,67.05,75,98,18.84,AR,1733108186
583,Ţubarjal,30.4999,38.216,48.97,48,28,2.86,SA,1733108187
584,Wynyard,-41.0,145.7167,68.18,83,98,5.99,AU,1733108189
585,Buala,-8.145,159.5921,84.07,75,28,5.08,SB,1733108190
586,Lerwick,60.1545,-1.1494,40.84,76,100,28.03,GB,1733108191
587,Tabas,33.5959,56.9244,39.42,52,0,2.3,IR,1733108192
588,Manaure,11.7751,-72.4445,82.09,80,65,15.12,CO,1733108194
589,Veigné,47.2856,0.7408,54.14,84,100,6.91,FR,1733108195
590,Puerto Colombia,10.9878,-74.9547,84.29,81,99,16.84,CO,1733108196
591,Geraldton,-28.7667,114.6,72.01,53,75,18.41,AU,1733108197
592,Gamonal,39.9607,-4.9618,51.35,79,79,4.29,ES,1733108199
